Municipio,codigo_dane,Departamento,hurtos_totales_promedio,hurtos_auto_promedio,hurtos_moto_promedio,recuperacion_total,captura_total,proporcion_motos,latitud,longitud,tasa_recuperacion,tasa_captura,categoria_hurtos,categoria_recuperacion,cluster_kmeans_geo1_robusto_limpio_id,cluster_kmeans_geo1_robusto_limpio_label,cluster_kmeans_geo1_robusto_limpio_orden
ABEJORRAL,5002000,ANTIOQUIA,50,14,36,54,8,0.7346938775510204,5.789315,-75.428739,1.08,0.16,Alto,Buena,0 (sub 1),"Cluster de intensidad delictiva media-alta, recuperacion media-baja y predominio de motos",4.0
ABREGO,54003000,NORTE DE SANTANDER,259,43,216,263,12,0.8306451612903226,8.081616,-73.221722,1.0154440154440154,0.0463320463320463,Muy Alto,Buena,6,"Cluster de alta intensidad delictiva, recuperacion media y predominio de motos",3.0
ABRIAQUI,5004000,ANTIOQUIA,1,0,1,6,0,1.0,6.632281999999999,-76.064304,6.0,0.0,Leve,Muy Buena,1,"Cluster de muy baja intensidad delictiva, muy alta recuperacion y predominio de motos",9.0
ACACIAS,50006000,META,1231,82,1149,572,56,0.9333649889205444,3.990413,-73.766034,0.4646628757108042,0.0454914703493095,Muy Alto,Grave,2,"Cluster de muy alta intensidad delictiva, baja recuperacion y predominio de motos",2.0
ACANDI,27006000,CHOCO,5,0,5,17,1,1.0,8.512178,-77.279951,3.4,0.2,Leve,Muy Buena,1,"Cluster de muy baja intensidad delictiva, muy alta recuperacion y predominio de motos",9.0
ACEVEDO,41006000,HUILA,498,25,473,223,29,0.9512791572610986,1.805173,-75.888706,0.4477911646586345,0.0582329317269076,Muy Alto,Grave,2,"Cluster de muy alta intensidad delictiva, baja recuperacion y predominio de motos",2.0
ACHI,13006000,BOLIVAR,8,0,8,19,2,1.0,8.570107,-74.557676,2.375,0.25,Leve,Muy Buena,1,"Cluster de muy baja intensidad delictiva, muy alta recuperacion y predominio de motos",9.0
AGRADO,41013000,HUILA,66,1,65,53,9,0.9846153846153848,2.25987,-75.77202200000002,0.803030303030303,0.1363636363636363,Alto,Mala,4,"Cluster de intensidad delictiva media, alta recuperacion y predominio de motos",5.0
AGUA DE DIOS,25001000,CUNDINAMARCA,36,9,27,21,4,0.7714285714285715,4.375309,-74.669221,0.5833333333333334,0.1111111111111111,Moderado,Grave,0 (sub 2),"Cluster de intensidad delictiva media, recuperacion alta y predominio de motos",6.0
AGUACHICA,20011000,CESAR,2838,168,2670,970,146,0.936966309579258,8.306811,-73.614027,0.3417899929527836,0.051444679351656,Muy Alto,Grave,6,"Cluster de alta intensidad delictiva, recuperacion media y predominio de motos",3.0
AGUADAS,17013000,CALDAS,27,2,25,52,12,0.9423076923076924,5.610244,-75.45487,1.9259259259259256,0.4444444444444444,Moderado,Muy Buena,0 (sub 2),"Cluster de intensidad delictiva media, recuperacion alta y predominio de motos",6.0
AGUAZUL,85010000,CASANARE,442,24,418,258,43,0.940506329113924,5.172641,-72.546838,0.583710407239819,0.0972850678733031,Muy Alto,Grave,6,"Cluster de alta intensidad delictiva, recuperacion media y predominio de motos",3.0
AGUSTIN CODAZZI,20013000,CESAR,702,96,606,293,73,0.8545647558386411,10.040454000000002,-73.238389,0.4173789173789173,0.1039886039886039,Muy Alto,Grave,6,"Cluster de alta intensidad delictiva, recuperacion media y predominio de motos",3.0
AIPE,41016000,HUILA,96,16,80,73,1,0.8478260869565217,3.223996,-75.239017,0.7604166666666666,0.0104166666666666,Alto,Mala,4,"Cluster de intensidad delictiva media, alta recuperacion y predominio de motos",5.0
ALBAN,52019000,CUNDINAMARCA,42,26,16,58,5,0.3846153846153846,1.474978,-77.080712,1.380952380952381,0.119047619047619,Moderado,Buena,3,"Cluster de baja intensidad delictiva, alta recuperacion y predominio de automotores",8.0
ALBAN,52019000,NARINO,35,3,32,81,3,0.9333333333333332,1.474978,-77.080712,2.3142857142857145,0.0857142857142857,Moderado,Muy Buena,3,"Cluster de baja intensidad delictiva, alta recuperacion y predominio de automotores",8.0
ALBANIA,44035000,CAQUETA,28,0,28,17,0,1.0,11.151628,-72.61232,0.6071428571428571,0.0,Moderado,Grave,5,"Cluster de baja intensidad delictiva, recuperacion media-baja y predominio de motos",7.0
ALBANIA,44035000,GUAJIRA,221,117,104,77,16,0.4741379310344827,11.151628,-72.61232,0.3484162895927601,0.0723981900452488,Muy Alto,Grave,5,"Cluster de baja intensidad delictiva, recuperacion media-baja y predominio de motos",7.0
ALBANIA,44035000,SANTANDER,1,0,1,0,0,1.0,11.151628,-72.61232,0.0,0.0,Leve,Grave,5,"Cluster de baja intensidad delictiva, recuperacion media-baja y predominio de motos",7.0
ALCALA,76020000,VALLE,171,26,145,74,5,0.8414634146341463,4.674994,-75.779792,0.4327485380116959,0.0292397660818713,Muy Alto,Grave,0 (sub 1),"Cluster de intensidad delictiva media-alta, recuperacion media-baja y predominio de motos",4.0
ALDANA,52022000,NARINO,98,32,66,80,18,0.671875,0.8823810000000001,-77.700564,0.8163265306122449,0.1836734693877551,Alto,Mala,4,"Cluster de intensidad delictiva media, alta recuperacion y predominio de motos",5.0
ALEJANDRIA,5021000,ANTIOQUIA,11,1,10,12,0,0.9090909090909092,6.376061,-75.141346,1.0909090909090908,0.0,Leve,Buena,1,"Cluster de muy baja intensidad delictiva, muy alta recuperacion y predominio de motos",9.0
ALGARROBO,47030000,MAGDALENA,56,9,47,66,4,0.8365384615384616,10.188059,-74.061132,1.1785714285714286,0.0714285714285714,Alto,Buena,5,"Cluster de baja intensidad delictiva, recuperacion media-baja y predominio de motos",7.0
ALGECIRAS,41020000,HUILA,172,8,164,193,11,0.9523809523809524,2.521674,-75.315389,1.122093023255814,0.063953488372093,Muy Alto,Buena,4,"Cluster de intensidad delictiva media, alta recuperacion y predominio de motos",5.0
ALMAGUER,19022000,CAUCA,25,6,19,108,0,0.7916666666666666,1.913429,-76.85607,4.32,0.0,Moderado,Muy Buena,4,"Cluster de intensidad delictiva media, alta recuperacion y predominio de motos",5.0
ALMEIDA,15022000,BOYACA,1,0,1,0,0,1.0,4.970857,-73.378933,0.0,0.0,Leve,Grave,1,"Cluster de muy baja intensidad delictiva, muy alta recuperacion y predominio de motos",9.0
ALPUJARRA,73024000,TOLIMA,5,0,5,6,0,1.0,3.391548,-74.9329,1.2,0.0,Leve,Buena,1,"Cluster de muy baja intensidad delictiva, muy alta recuperacion y predominio de motos",9.0
ALTAMIRA,41026000,HUILA,91,12,79,106,15,0.8636363636363636,2.063841,-75.788471,1.164835164835165,0.1648351648351648,Alto,Buena,4,"Cluster de intensidad delictiva media, alta recuperacion y predominio de motos",5.0
ALTOS DEL ROSARIO,13030000,BOLIVAR,3,0,3,8,0,1.0,8.791865,-74.164905,2.6666666666666665,0.0,Leve,Muy Buena,1,"Cluster de muy baja intensidad delictiva, muy alta recuperacion y predominio de motos",9.0
ALVARADO,73026000,TOLIMA,51,17,34,50,13,0.6530612244897959,4.567356,-74.953418,0.9803921568627452,0.2549019607843137,Alto,Mala,0 (sub 1),"Cluster de intensidad delictiva media-alta, recuperacion media-baja y predominio de motos",4.0
AMAGA,5030000,ANTIOQUIA,210,39,171,199,26,0.8125,6.038708,-75.702188,0.9476190476190476,0.1238095238095238,Muy Alto,Mala,0 (sub 1),"Cluster de intensidad delictiva media-alta, recuperacion media-baja y predominio de motos",4.0
AMALFI,5031000,ANTIOQUIA,116,12,104,128,11,0.8990825688073395,6.909655000000001,-75.077501,1.103448275862069,0.0948275862068965,Alto,Buena,0 (sub 1),"Cluster de intensidad delictiva media-alta, recuperacion media-baja y predominio de motos",4.0
AMBALEMA,73030000,TOLIMA,28,5,23,19,3,0.8214285714285714,4.782682,-74.764429,0.6785714285714286,0.1071428571428571,Moderado,Mala,0 (sub 2),"Cluster de intensidad delictiva media, recuperacion alta y predominio de motos",6.0
ANAPOIMA,25035000,CUNDINAMARCA,42,10,32,38,12,0.7619047619047619,4.562737,-74.528676,0.9047619047619048,0.2857142857142857,Moderado,Mala,0 (sub 2),"Cluster de intensidad delictiva media, recuperacion alta y predominio de motos",6.0
ANCUYA,52036000,NARINO,26,2,24,53,5,0.9230769230769232,1.263276,-77.514512,2.0384615384615383,0.1923076923076923,Moderado,Muy Buena,4,"Cluster de intensidad delictiva media, alta recuperacion y predominio de motos",5.0
ANDALUCIA,76036000,VALLE,148,36,112,71,16,0.7714285714285715,4.171713,-76.167925,0.4797297297297297,0.1081081081081081,Alto,Grave,0 (sub 1),"Cluster de intensidad delictiva media-alta, recuperacion media-baja y predominio de motos",4.0
ANDES,5034000,ANTIOQUIA,210,13,197,179,23,0.9402985074626866,5.657194,-75.878828,0.8523809523809524,0.1095238095238095,Muy Alto,Mala,0 (sub 1),"Cluster de intensidad delictiva media-alta, recuperacion media-baja y predominio de motos",4.0
ANGELOPOLIS,5036000,ANTIOQUIA,23,9,14,34,4,0.5909090909090909,6.109719,-75.711389,1.4782608695652173,0.1739130434782608,Moderado,Buena,3,"Cluster de baja intensidad delictiva, alta recuperacion y predominio de automotores",8.0
ANGOSTURA,5038000,ANTIOQUIA,40,3,37,36,2,0.9142857142857144,6.885175,-75.335116,0.9,0.05,Moderado,Mala,5,"Cluster de baja intensidad delictiva, recuperacion media-baja y predominio de motos",7.0
ANOLAIMA,25040000,CUNDINAMARCA,26,4,22,31,1,0.875,4.7617,-74.46384,1.1923076923076923,0.0384615384615384,Moderado,Buena,1,"Cluster de muy baja intensidad delictiva, muy alta recuperacion y predominio de motos",9.0
ANORI,5040000,ANTIOQUIA,45,2,43,87,0,0.9523809523809524,7.074703,-75.148355,1.9333333333333331,0.0,Alto,Muy Buena,5,"Cluster de baja intensidad delictiva, recuperacion media-baja y predominio de motos",7.0
ANSERMA,17042000,CALDAS,94,20,74,125,14,0.7912087912087912,5.236471,-75.784343,1.3297872340425532,0.1489361702127659,Alto,Buena,0 (sub 1),"Cluster de intensidad delictiva media-alta, recuperacion media-baja y predominio de motos",4.0
ANSERMANUEVO,76041000,VALLE,115,17,98,64,2,0.8468468468468469,4.794984,-75.992003,0.5565217391304348,0.017391304347826,Alto,Grave,0 (sub 1),"Cluster de intensidad delictiva media-alta, recuperacion media-baja y predominio de motos",4.0
ANZA,5044000,ANTIOQUIA,17,1,16,24,0,0.9411764705882352,6.302641,-75.854442,1.411764705882353,0.0,Moderado,Buena,1,"Cluster de muy baja intensidad delictiva, muy alta recuperacion y predominio de motos",9.0
ANZOATEGUI,73043000,TOLIMA,23,3,20,38,1,0.8863636363636364,4.631756000000001,-75.093772,1.6521739130434785,0.0434782608695652,Moderado,Muy Buena,1,"Cluster de muy baja intensidad delictiva, muy alta recuperacion y predominio de motos",9.0
APARTADO,5045000,ANTIOQUIA,1185,31,1154,816,65,0.9734886862546436,7.882968000000001,-76.625279,0.6886075949367089,0.0548523206751054,Muy Alto,Mala,6,"Cluster de alta intensidad delictiva, recuperacion media y predominio de motos",3.0
APIA,66045000,RISARALDA,40,9,31,46,7,0.775,5.106526,-75.942356,1.15,0.175,Moderado,Buena,0 (sub 1),"Cluster de intensidad delictiva media-alta, recuperacion media-baja y predominio de motos",4.0
APULO,25599000,CUNDINAMARCA,25,12,13,21,3,0.5416666666666666,4.520304,-74.593926,0.84,0.12,Moderado,Mala,3,"Cluster de baja intensidad delictiva, alta recuperacion y predominio de automotores",8.0
AQUITANIA,15047000,BOYACA,17,6,11,31,3,0.6428571428571429,5.518602,-72.88399,1.8235294117647056,0.1764705882352941,Moderado,Muy Buena,3,"Cluster de baja intensidad delictiva, alta recuperacion y predominio de automotores",8.0
ARACATACA,47053000,MAGDALENA,396,11,385,188,29,0.9706666666666668,10.589791,-74.186702,0.4747474747474747,0.0732323232323232,Muy Alto,Grave,6,"Cluster de alta intensidad delictiva, recuperacion media y predominio de motos",3.0
ARANZAZU,17050000,CALDAS,15,1,14,16,3,0.9333333333333332,5.271195,-75.49129,1.0666666666666669,0.2,Moderado,Buena,1,"Cluster de muy baja intensidad delictiva, muy alta recuperacion y predominio de motos",9.0
ARATOCA,68051000,SANTANDER,12,2,10,34,6,0.8181818181818182,6.694418,-73.01786,2.833333333333333,0.5,Moderado,Muy Buena,1,"Cluster de muy baja intensidad delictiva, muy alta recuperacion y predominio de motos",9.0
ARAUCA (CT),81001000,ARAUCA,1293,62,1231,707,125,0.9529520295202952,7.072726,-70.747408,0.5467904098994586,0.0966744006187161,Muy Alto,Grave,6,"Cluster de alta intensidad delictiva, recuperacion media y predominio de motos",3.0
ARAUQUITA,81065000,ARAUCA,258,121,137,84,3,0.5531295487627366,7.027020000000001,-71.426733,0.3255813953488372,0.0116279069767441,Muy Alto,Grave,0 (sub 1),"Cluster de intensidad delictiva media-alta, recuperacion media-baja y predominio de motos",4.0
ARBELAEZ,25053000,CUNDINAMARCA,22,4,18,31,3,0.8181818181818182,4.272534,-74.414901,1.4090909090909092,0.1363636363636363,Moderado,Buena,0 (sub 2),"Cluster de intensidad delictiva media, recuperacion alta y predominio de motos",6.0
ARBOLEDA,52051000,NARINO,22,2,20,54,2,0.9090909090909092,1.503418,-77.135467,2.4545454545454546,0.0909090909090909,Moderado,Muy Buena,4,"Cluster de intensidad delictiva media, alta recuperacion y predominio de motos",5.0
ARBOLEDAS,54051000,NORTE DE SANTANDER,6,1,5,13,0,0.8333333333333334,7.642985,-72.798952,2.1666666666666665,0.0,Leve,Muy Buena,1,"Cluster de muy baja intensidad delictiva, muy alta recuperacion y predominio de motos",9.0
ARBOLETES,5051000,ANTIOQUIA,68,4,64,71,5,0.9402985074626866,8.849317,-76.426708,1.0441176470588236,0.0735294117647058,Alto,Buena,5,"Cluster de baja intensidad delictiva, recuperacion media-baja y predominio de motos",7.0
ARCABUCO,15051000,BOYACA,14,5,9,35,6,0.6428571428571429,5.755672999999999,-73.437503,2.5,0.4285714285714285,Moderado,Muy Buena,3,"Cluster de baja intensidad delictiva, alta recuperacion y predominio de automotores",8.0
ARENAL,13042000,BOLIVAR,9,1,8,26,5,0.8888888888888888,8.458865,-73.941099,2.888888888888889,0.5555555555555556,Leve,Muy Buena,5,"Cluster de baja intensidad delictiva, recuperacion media-baja y predominio de motos",7.0
ARGELIA,19050000,ANTIOQUIA,7,0,7,20,5,1.0,2.257427,-77.24905,2.857142857142857,0.7142857142857143,Leve,Muy Buena,4,"Cluster de intensidad delictiva media, alta recuperacion y predominio de motos",5.0
ARGELIA,19050000,CAUCA,187,29,158,163,1,0.8472222222222222,2.257427,-77.24905,0.8716577540106952,0.0053475935828877,Muy Alto,Mala,4,"Cluster de intensidad delictiva media, alta recuperacion y predominio de motos",5.0
ARGELIA,19050000,VALLE,11,1,10,16,1,0.9,2.257427,-77.24905,1.4545454545454546,0.0909090909090909,Leve,Buena,4,"Cluster de intensidad delictiva media, alta recuperacion y predominio de motos",5.0
ARIGUANI,47058000,MAGDALENA,132,36,96,91,10,0.7131147540983607,9.847047,-74.236515,0.6893939393939394,0.0757575757575757,Alto,Mala,6,"Cluster de alta intensidad delictiva, recuperacion media y predominio de motos",3.0
ARJONA,13052000,BOLIVAR,572,18,554,269,47,0.969639468690702,10.25666,-75.344332,0.4702797202797202,0.0821678321678321,Muy Alto,Grave,6,"Cluster de alta intensidad delictiva, recuperacion media y predominio de motos",3.0
ARMENIA,5059000,ANTIOQUIA,6,2,4,11,2,0.6,6.155667,-75.786647,1.8333333333333333,0.3333333333333333,Leve,Muy Buena,3,"Cluster de baja intensidad delictiva, alta recuperacion y predominio de automotores",8.0
ARMENIA (CT),63001000,QUINDIO,1817,275,1542,1335,195,0.8515883520847121,4.53598,-75.680786,0.7347275729223995,0.1073197578425976,Muy Alto,Mala,2,"Cluster de muy alta intensidad delictiva, baja recuperacion y predominio de motos",2.0
ARMERO,73055000,TOLIMA,99,32,67,63,10,0.6736842105263158,5.030744,-74.884438,0.6363636363636364,0.101010101010101,Alto,Mala,0 (sub 1),"Cluster de intensidad delictiva media-alta, recuperacion media-baja y predominio de motos",4.0
ARROYOHONDO,13062000,BOLIVAR,10,2,8,19,1,0.8,10.250075,-75.019215,1.9,0.1,Leve,Muy Buena,5,"Cluster de baja intensidad delictiva, recuperacion media-baja y predominio de motos",7.0
ASTREA,20032000,CESAR,52,8,44,79,9,0.8431372549019608,9.498062,-73.975842,1.5192307692307692,0.173076923076923,Alto,Buena,5,"Cluster de baja intensidad delictiva, recuperacion media-baja y predominio de motos",7.0
ATACO,73067000,TOLIMA,71,1,70,88,2,0.9850746268656716,3.590591,-75.382545,1.2394366197183098,0.028169014084507,Alto,Buena,4,"Cluster de intensidad delictiva media, alta recuperacion y predominio de motos",5.0
ATRATO,27050000,CHOCO,29,1,28,18,0,0.9642857142857144,5.531419,-76.635674,0.6206896551724138,0.0,Moderado,Grave,1,"Cluster de muy baja intensidad delictiva, muy alta recuperacion y predominio de motos",9.0
AYAPEL,23068000,CORDOBA,103,0,103,133,4,1.0,8.313838,-75.146048,1.2912621359223302,0.0388349514563106,Alto,Buena,5,"Cluster de baja intensidad delictiva, recuperacion media-baja y predominio de motos",7.0
BAGADO,27073000,CHOCO,2,0,2,0,0,1.0,5.409681,-76.416063,0.0,0.0,Leve,Grave,1,"Cluster de muy baja intensidad delictiva, muy alta recuperacion y predominio de motos",9.0
BAHIA SOLANO,27075000,CHOCO,7,0,7,8,2,1.0,6.222807,-77.401359,1.1428571428571428,0.2857142857142857,Leve,Buena,1,"Cluster de muy baja intensidad delictiva, muy alta recuperacion y predominio de motos",9.0
BAJO BAUDO,27077000,CHOCO,0,0,0,14,1,,4.954576000000001,-77.365717,,,Leve,,,,
BALBOA,19075000,CAUCA,208,34,174,260,7,0.8341708542713567,2.040998,-77.215773,1.25,0.0336538461538461,Muy Alto,Buena,4,"Cluster de intensidad delictiva media, alta recuperacion y predominio de motos",5.0
BALBOA,19075000,RISARALDA,47,11,36,46,3,0.8,2.040998,-77.215773,0.9787234042553192,0.0638297872340425,Alto,Mala,4,"Cluster de intensidad delictiva media, alta recuperacion y predominio de motos",5.0
BARANOA,8078000,ATLANTICO,461,35,426,286,73,0.9220297029702972,10.79445,-74.916077,0.6203904555314533,0.158351409978308,Muy Alto,Grave,6,"Cluster de alta intensidad delictiva, recuperacion media y predominio de motos",3.0
BARAYA,41078000,HUILA,26,4,22,48,7,0.8461538461538461,3.152204,-75.054843,1.8461538461538465,0.2692307692307692,Moderado,Muy Buena,4,"Cluster de intensidad delictiva media, alta recuperacion y predominio de motos",5.0
BARBACOAS,52079000,NARINO,42,20,22,58,1,0.5365853658536586,1.671733,-78.13765,1.380952380952381,0.0238095238095238,Moderado,Buena,4,"Cluster de intensidad delictiva media, alta recuperacion y predominio de motos",5.0
BARBOSA,5079000,ANTIOQUIA,560,143,417,322,38,0.7409819639278558,6.439194999999999,-75.331627,0.575,0.0678571428571428,Muy Alto,Grave,0 (sub 1),"Cluster de intensidad delictiva media-alta, recuperacion media-baja y predominio de motos",4.0
BARBOSA,5079000,SANTANDER,137,30,107,144,27,0.80078125,6.439195,-75.331627,1.051094890510949,0.1970802919708029,Alto,Buena,0 (sub 1),"Cluster de intensidad delictiva media-alta, recuperacion media-baja y predominio de motos",4.0
BARICHARA,68079000,SANTANDER,5,1,4,5,0,0.8,6.634111,-73.223047,1.0,0.0,Leve,Mala,1,"Cluster de muy baja intensidad delictiva, muy alta recuperacion y predominio de motos",9.0
BARRANCA DE UPIA,50110000,META,41,1,40,53,7,0.975,4.566225,-72.961083,1.2926829268292683,0.1707317073170731,Moderado,Buena,0 (sub 2),"Cluster de intensidad delictiva media, recuperacion alta y predominio de motos",6.0
BARRANCABERMEJA,68081000,SANTANDER,3617,239,3378,1121,194,0.935927985173418,7.064857,-73.849243,0.3099253525020735,0.053635609621233,Muy Alto,Grave,6,"Cluster de alta intensidad delictiva, recuperacion media y predominio de motos",3.0
BARRANCAS,44078000,GUAJIRA,293,87,206,163,39,0.6981074481074482,10.958669,-72.793639,0.5563139931740614,0.1331058020477815,Muy Alto,Grave,6,"Cluster de alta intensidad delictiva, recuperacion media y predominio de motos",3.0
BARRANCO DE LOBA,13074000,BOLIVAR,19,0,19,11,1,1.0,8.947787,-74.104391,0.5789473684210527,0.0526315789473684,Moderado,Grave,1,"Cluster de muy baja intensidad delictiva, muy alta recuperacion y predominio de motos",9.0
BARRANQUILLA (CT),8001000,ATLANTICO,18574,5332,13242,6733,1751,0.7101429108071522,10.977961,-74.815546,0.3624959620975557,0.0942715623990524,Muy Alto,Grave,cluster_extremo,Cluster de ciudades principales con intensidad delictiva extrema,1.0
BECERRIL,20045000,CESAR,181,39,142,117,14,0.7819767441860465,9.704404,-73.278707,0.6464088397790055,0.0773480662983425,Muy Alto,Mala,6,"Cluster de alta intensidad delictiva, recuperacion media y predominio de motos",3.0
BELALCAZAR,17088000,CALDAS,22,11,11,27,1,0.5,4.993785,-75.811918,1.2272727272727273,0.0454545454545454,Moderado,Buena,3,"Cluster de baja intensidad delictiva, alta recuperacion y predominio de automotores",8.0
BELEN,52083000,BOYACA,5,3,2,10,2,0.4,1.595681,-77.015619,2.0,0.4,Leve,Muy Buena,3,"Cluster de baja intensidad delictiva, alta recuperacion y predominio de automotores",8.0
BELEN,52083000,NARINO,5,1,4,43,0,0.8,1.595681,-77.015619,8.6,0.0,Leve,Muy Buena,3,"Cluster de baja intensidad delictiva, alta recuperacion y predominio de automotores",8.0
BELEN DE LOS ANDAQUIES,18094000,CAQUETA,80,1,79,45,3,0.987012987012987,1.415812,-75.872405,0.5625,0.0375,Alto,Grave,4,"Cluster de intensidad delictiva media, alta recuperacion y predominio de motos",5.0
BELEN DE UMBRIA,66088000,RISARALDA,72,10,62,164,18,0.8695652173913043,5.200793,-75.868334,2.2777777777777777,0.25,Alto,Muy Buena,0 (sub 1),"Cluster de intensidad delictiva media-alta, recuperacion media-baja y predominio de motos",4.0
BELLO,5088000,ANTIOQUIA,12094,3035,9059,2713,384,0.7439205115638639,6.333587,-75.555245,0.2243261121217132,0.0317512816272531,Muy Alto,Grave,cluster_extremo,Cluster de ciudades principales con intensidad delictiva extrema,1.0
BELMIRA,5086000,ANTIOQUIA,18,2,16,33,1,0.8888888888888888,6.606319,-75.667779,1.8333333333333333,0.0555555555555555,Moderado,Muy Buena,5,"Cluster de baja intensidad delictiva, recuperacion media-baja y predominio de motos",7.0
BELTRAN,25086000,CUNDINAMARCA,4,4,0,15,0,0.0,4.802832,-74.741666,3.75,0.0,Leve,Muy Buena,3,"Cluster de baja intensidad delictiva, alta recuperacion y predominio de automotores",8.0
BERBEO,15090000,BOYACA,0,0,0,4,0,,5.227451,-73.12721,,,Leve,,,,
BETANIA,5091000,ANTIOQUIA,33,0,33,33,3,1.0,5.74615,-75.97679,1.0,0.0909090909090909,Moderado,Mala,5,"Cluster de baja intensidad delictiva, recuperacion media-baja y predominio de motos",7.0
BETEITIVA,15092000,BOYACA,0,0,0,1,0,,5.909978,-72.809014,,,Leve,,,,
BETULIA,5093000,ANTIOQUIA,52,1,51,73,5,0.9803921568627452,6.115208,-75.984452,1.4038461538461535,0.0961538461538461,Alto,Buena,5,"Cluster de baja intensidad delictiva, recuperacion media-baja y predominio de motos",7.0
BETULIA,5093000,SANTANDER,12,2,10,41,3,0.8181818181818182,6.115208,-75.984452,3.4166666666666665,0.25,Moderado,Muy Buena,5,"Cluster de baja intensidad delictiva, recuperacion media-baja y predominio de motos",7.0
BITUIMA,25095000,CUNDINAMARCA,2,1,1,11,2,0.5,4.872171,-74.539609,5.5,1.0,Leve,Muy Buena,3,"Cluster de baja intensidad delictiva, alta recuperacion y predominio de automotores",8.0
BOAVITA,15097000,BOYACA,2,1,1,4,0,0.5,6.330703,-72.584905,2.0,0.0,Leve,Muy Buena,3,"Cluster de baja intensidad delictiva, alta recuperacion y predominio de automotores",8.0
BOCHALEMA,54099000,NORTE DE SANTANDER,25,5,20,25,5,0.8,7.612192,-72.64701,1.0,0.2,Moderado,Mala,5,"Cluster de baja intensidad delictiva, recuperacion media-baja y predominio de motos",7.0
BOGOTA D.C. (CT),11001000,CUNDINAMARCA,107540,50711,56829,26160,3654,0.506514730737743,4.649251,-74.106992,0.2432583224846568,0.0339780546773293,Muy Alto,Grave,cluster_extremo,Cluster de ciudades principales con intensidad delictiva extrema,1.0
BOJACA,25099000,CUNDINAMARCA,66,50,16,47,6,0.2539682539682539,4.737205,-74.344594,0.7121212121212122,0.0909090909090909,Alto,Mala,3,"Cluster de baja intensidad delictiva, alta recuperacion y predominio de automotores",8.0
BOLIVAR,19100000,CAUCA,108,26,82,316,3,0.7755775577557755,1.837538,-76.966215,2.925925925925926,0.0277777777777777,Alto,Muy Buena,4,"Cluster de intensidad delictiva media, alta recuperacion y predominio de motos",5.0
BOLIVAR,19100000,SANTANDER,11,0,11,17,0,1.0,1.837538,-76.966215,1.5454545454545454,0.0,Leve,Buena,4,"Cluster de intensidad delictiva media, alta recuperacion y predominio de motos",5.0
BOLIVAR,19100000,VALLE,39,7,32,77,2,0.8055555555555556,1.837538,-76.966215,1.9743589743589745,0.0512820512820512,Moderado,Muy Buena,4,"Cluster de intensidad delictiva media, alta recuperacion y predominio de motos",5.0
BOSCONIA,20060000,CESAR,393,107,286,278,47,0.7387005649717514,9.975098,-73.888761,0.7073791348600509,0.1195928753180661,Muy Alto,Mala,6,"Cluster de alta intensidad delictiva, recuperacion media y predominio de motos",3.0
BOYACA,15104000,BOYACA,13,5,8,7,0,0.6153846153846154,5.454578,-73.361945,0.5384615384615384,0.0,Moderado,Grave,3,"Cluster de baja intensidad delictiva, alta recuperacion y predominio de automotores",8.0
BRICENO,5107000,ANTIOQUIA,15,3,12,26,2,0.8,7.112803,-75.55036,1.7333333333333334,0.1333333333333333,Moderado,Muy Buena,5,"Cluster de baja intensidad delictiva, recuperacion media-baja y predominio de motos",7.0
BRICENO,5107000,BOYACA,1,0,1,2,1,1.0,7.112803,-75.55036,2.0,1.0,Leve,Muy Buena,5,"Cluster de baja intensidad delictiva, recuperacion media-baja y predominio de motos",7.0
BUCARAMANGA (CT),68001000,SANTANDER,6403,270,6133,2960,869,0.9560964894764168,7.11647,-73.132562,0.4622833047009214,0.1357176323598313,Muy Alto,Grave,6,"Cluster de alta intensidad delictiva, recuperacion media y predominio de motos",3.0
BUCARASICA,54109000,NORTE DE SANTANDER,44,26,18,14,1,0.4186046511627907,8.041299,-72.868231,0.3181818181818182,0.0227272727272727,Alto,Grave,3,"Cluster de baja intensidad delictiva, alta recuperacion y predominio de automotores",8.0
BUENAVENTURA,76109000,VALLE,1314,127,1187,885,108,0.8999699157641395,3.875708,-77.01074,0.6735159817351598,0.0821917808219178,Muy Alto,Mala,2,"Cluster de muy alta intensidad delictiva, baja recuperacion y predominio de motos",2.0
BUENAVISTA,23079000,BOYACA,7,4,3,15,0,0.4666666666666667,8.221187,-75.480897,2.142857142857143,0.0,Leve,Muy Buena,3,"Cluster de baja intensidad delictiva, alta recuperacion y predominio de automotores",8.0
BUENAVISTA,23079000,CORDOBA,71,2,69,77,6,0.9692307692307692,8.221187,-75.480897,1.0845070422535212,0.0845070422535211,Alto,Buena,3,"Cluster de baja intensidad delictiva, alta recuperacion y predominio de automotores",8.0
BUENAVISTA,23079000,QUINDIO,10,2,8,7,1,0.8,8.221187,-75.480897,0.7,0.1,Leve,Mala,3,"Cluster de baja intensidad delictiva, alta recuperacion y predominio de automotores",8.0
BUENAVISTA,23079000,SUCRE,22,0,22,34,7,1.0,8.221187,-75.480897,1.5454545454545454,0.3181818181818182,Moderado,Buena,3,"Cluster de baja intensidad delictiva, alta recuperacion y predominio de automotores",8.0
BUENOS AIRES,19110000,CAUCA,150,55,95,234,6,0.6344827586206897,3.015382,-76.642238,1.56,0.04,Muy Alto,Buena,0 (sub 1),"Cluster de intensidad delictiva media-alta, recuperacion media-baja y predominio de motos",4.0
BUESACO,52110000,NARINO,127,16,111,214,13,0.8699186991869918,1.381453,-77.156463,1.68503937007874,0.1023622047244094,Alto,Muy Buena,4,"Cluster de intensidad delictiva media, alta recuperacion y predominio de motos",5.0
BUGALAGRANDE,76113000,VALLE,182,46,136,115,10,0.7426900584795322,4.208358,-76.15682,0.6318681318681318,0.0549450549450549,Muy Alto,Mala,0 (sub 1),"Cluster de intensidad delictiva media-alta, recuperacion media-baja y predominio de motos",4.0
BURITICA,5113000,ANTIOQUIA,56,3,53,45,4,0.9444444444444444,6.720759,-75.907,0.8035714285714286,0.0714285714285714,Alto,Mala,5,"Cluster de baja intensidad delictiva, recuperacion media-baja y predominio de motos",7.0
BUSBANZA,15114000,BOYACA,1,0,1,3,0,1.0,5.831393,-72.884158,3.0,0.0,Leve,Muy Buena,1,"Cluster de muy baja intensidad delictiva, muy alta recuperacion y predominio de motos",9.0
CABRERA,25120000,CUNDINAMARCA,7,2,5,8,0,0.7142857142857143,3.985164,-74.484549,1.1428571428571428,0.0,Leve,Buena,1,"Cluster de muy baja intensidad delictiva, muy alta recuperacion y predominio de motos",9.0
CABRERA,25120000,SANTANDER,0,0,0,1,0,,3.985164,-74.484549,,,Leve,,1,"Cluster de muy baja intensidad delictiva, muy alta recuperacion y predominio de motos",9.0
CABUYARO,50124000,META,38,14,24,12,2,0.638095238095238,4.286705,-72.791768,0.3157894736842105,0.0526315789473684,Moderado,Grave,3,"Cluster de baja intensidad delictiva, alta recuperacion y predominio de automotores",8.0
CACERES,5120000,ANTIOQUIA,59,8,51,67,6,0.8620689655172413,7.578366,-75.35205,1.1355932203389831,0.1016949152542373,Alto,Buena,5,"Cluster de baja intensidad delictiva, recuperacion media-baja y predominio de motos",7.0
CACHIPAY,25123000,CUNDINAMARCA,23,5,18,24,5,0.7727272727272727,4.730957,-74.435711,1.0434782608695652,0.217391304347826,Moderado,Buena,0 (sub 2),"Cluster de intensidad delictiva media, recuperacion alta y predominio de motos",6.0
CACHIRA,54128000,NORTE DE SANTANDER,11,2,9,25,1,0.8,7.741248,-73.048983,2.272727272727273,0.0909090909090909,Leve,Muy Buena,1,"Cluster de muy baja intensidad delictiva, muy alta recuperacion y predominio de motos",9.0
CACOTA,54125000,NORTE DE SANTANDER,13,4,9,8,0,0.6923076923076923,7.268705,-72.642059,0.6153846153846154,0.0,Moderado,Grave,1,"Cluster de muy baja intensidad delictiva, muy alta recuperacion y predominio de motos",9.0
CAICEDO,5125000,ANTIOQUIA,20,1,19,23,0,0.95,6.405606999999999,-75.98293,1.15,0.0,Moderado,Buena,1,"Cluster de muy baja intensidad delictiva, muy alta recuperacion y predominio de motos",9.0
CAICEDONIA,76122000,VALLE,164,17,147,99,15,0.8980891719745223,4.334808,-75.830594,0.6036585365853658,0.0914634146341463,Muy Alto,Grave,0 (sub 1),"Cluster de intensidad delictiva media-alta, recuperacion media-baja y predominio de motos",4.0
CAIMITO,70124000,SUCRE,23,2,21,21,3,0.9090909090909092,8.789324,-75.117141,0.9130434782608696,0.1304347826086956,Moderado,Mala,5,"Cluster de baja intensidad delictiva, recuperacion media-baja y predominio de motos",7.0
CAJAMARCA,73124000,TOLIMA,50,12,38,110,13,0.7755102040816326,4.438812,-75.431971,2.2,0.26,Alto,Muy Buena,0 (sub 1),"Cluster de intensidad delictiva media-alta, recuperacion media-baja y predominio de motos",4.0
CAJIBIO,19130000,CAUCA,582,90,492,376,11,0.8524904214559387,2.623371,-76.570682,0.6460481099656358,0.0189003436426116,Muy Alto,Mala,2,"Cluster de muy alta intensidad delictiva, baja recuperacion y predominio de motos",2.0
CAJICA,25126000,CUNDINAMARCA,216,102,114,172,10,0.5264026402640264,4.920009,-74.02298,0.7962962962962963,0.0462962962962962,Muy Alto,Mala,0 (sub 1),"Cluster de intensidad delictiva media-alta, recuperacion media-baja y predominio de motos",4.0
CALAMAR,13140000,BOLIVAR,59,9,50,89,10,0.8421052631578947,10.250431,-74.916144,1.5084745762711864,0.1694915254237288,Alto,Buena,5,"Cluster de baja intensidad delictiva, recuperacion media-baja y predominio de motos",7.0
CALAMAR,13140000,GUAVIARE,28,0,28,26,3,1.0,10.250431,-74.916144,0.9285714285714286,0.1071428571428571,Moderado,Mala,5,"Cluster de baja intensidad delictiva, recuperacion media-baja y predominio de motos",7.0
CALARCA,63130000,QUINDIO,445,89,356,274,38,0.8192695214105793,4.520982,-75.646085,0.6157303370786517,0.0853932584269663,Muy Alto,Grave,2,"Cluster de muy alta intensidad delictiva, baja recuperacion y predominio de motos",2.0
CALDAS,5129000,ANTIOQUIA,862,313,549,404,36,0.63424688057041,6.091077,-75.633673,0.4686774941995359,0.0417633410672853,Muy Alto,Grave,2,"Cluster de muy alta intensidad delictiva, baja recuperacion y predominio de motos",2.0
CALDAS,5129000,BOYACA,5,2,3,6,0,0.6,6.091076999999999,-75.633673,1.2,0.0,Leve,Buena,2,"Cluster de muy alta intensidad delictiva, baja recuperacion y predominio de motos",2.0
CALDONO,19137000,CAUCA,216,50,166,262,2,0.775,2.798059,-76.484319,1.212962962962963,0.0092592592592592,Muy Alto,Buena,4,"Cluster de intensidad delictiva media, alta recuperacion y predominio de motos",5.0
CALI (CT),76001000,VALLE,72149,27453,44696,16272,3146,0.6199110842548247,3.413686,-76.52133,0.2255332714244133,0.0436042079585302,Muy Alto,Grave,cluster_extremo,Cluster de ciudades principales con intensidad delictiva extrema,1.0
CALIFORNIA,68132000,SANTANDER,0,0,0,6,0,,7.347989000000001,-72.946491,,,Leve,,,,
CALIMA,76126000,VALLE,140,26,114,110,8,0.8180661577608143,3.933664,-76.484132,0.7857142857142857,0.0571428571428571,Alto,Mala,0 (sub 1),"Cluster de intensidad delictiva media-alta, recuperacion media-baja y predominio de motos",4.0
CALOTO,19142000,CAUCA,815,249,566,349,8,0.7009060562708631,3.034531,-76.408941,0.4282208588957055,0.0098159509202454,Muy Alto,Grave,2,"Cluster de muy alta intensidad delictiva, baja recuperacion y predominio de motos",2.0
CAMPAMENTO,5134000,ANTIOQUIA,10,3,7,29,1,0.7777777777777778,6.979771,-75.298091,2.9,0.1,Leve,Muy Buena,1,"Cluster de muy baja intensidad delictiva, muy alta recuperacion y predominio de motos",9.0
CAMPO DE LA CRUZ,8137000,ATLANTICO,35,7,28,95,8,0.8088235294117647,10.378291,-74.880847,2.7142857142857144,0.2285714285714285,Moderado,Muy Buena,5,"Cluster de baja intensidad delictiva, recuperacion media-baja y predominio de motos",7.0
CAMPOALEGRE,41132000,HUILA,734,25,709,268,27,0.962920489296636,2.686767,-75.325748,0.3651226158038147,0.0367847411444141,Muy Alto,Grave,2,"Cluster de muy alta intensidad delictiva, baja recuperacion y predominio de motos",2.0
CAMPOHERMOSO,15135000,BOYACA,2,0,2,1,0,1.0,5.031676,-73.104173,0.5,0.0,Leve,Grave,1,"Cluster de muy baja intensidad delictiva, muy alta recuperacion y predominio de motos",9.0
CANALETE,23090000,CORDOBA,10,1,9,22,1,0.8888888888888888,8.786939,-76.241476,2.2,0.1,Leve,Muy Buena,5,"Cluster de baja intensidad delictiva, recuperacion media-baja y predominio de motos",7.0
CANASGORDAS,5138000,ANTIOQUIA,56,12,44,103,10,0.7777777777777778,6.753859,-76.028228,1.8392857142857144,0.1785714285714285,Alto,Muy Buena,0 (sub 1),"Cluster de intensidad delictiva media-alta, recuperacion media-baja y predominio de motos",4.0
CANDELARIA,76130000,ATLANTICO,29,5,24,48,2,0.8518518518518519,3.408354,-76.346519,1.6551724137931034,0.0689655172413793,Moderado,Muy Buena,4,"Cluster de intensidad delictiva media, alta recuperacion y predominio de motos",5.0
CANDELARIA,76130000,VALLE,1975,437,1538,978,141,0.7749460276338515,3.408354,-76.346519,0.4951898734177215,0.0713924050632911,Muy Alto,Grave,4,"Cluster de intensidad delictiva media, alta recuperacion y predominio de motos",5.0
CANTAGALLO,13160000,BOLIVAR,17,2,15,26,3,0.9375,7.378678,-73.914605,1.5294117647058822,0.1764705882352941,Moderado,Buena,5,"Cluster de baja intensidad delictiva, recuperacion media-baja y predominio de motos",7.0
CAPARRAPI,25148000,CUNDINAMARCA,13,5,8,32,10,0.6153846153846154,5.34758,-74.491045,2.4615384615384617,0.7692307692307693,Moderado,Muy Buena,3,"Cluster de baja intensidad delictiva, alta recuperacion y predominio de automotores",8.0
CAPITANEJO,68147000,SANTANDER,6,3,3,6,3,0.5,6.527394,-72.695427,1.0,0.5,Leve,Mala,3,"Cluster de baja intensidad delictiva, alta recuperacion y predominio de automotores",8.0
CAQUEZA,25151000,CUNDINAMARCA,53,24,29,198,17,0.55,4.404112,-73.946473,3.7358490566037736,0.320754716981132,Alto,Muy Buena,0 (sub 1),"Cluster de intensidad delictiva media-alta, recuperacion media-baja y predominio de motos",4.0
CARACOLI,5142000,ANTIOQUIA,8,2,6,14,0,0.8571428571428571,6.409829,-74.757421,1.75,0.0,Leve,Muy Buena,1,"Cluster de muy baja intensidad delictiva, muy alta recuperacion y predominio de motos",9.0
CARAMANTA,5145000,ANTIOQUIA,9,2,7,17,2,0.75,5.54853,-75.643868,1.8888888888888888,0.2222222222222222,Leve,Muy Buena,1,"Cluster de muy baja intensidad delictiva, muy alta recuperacion y predominio de motos",9.0
CARCASI,68152000,SANTANDER,2,0,2,6,3,1.0,6.629016,-72.627099,3.0,1.5,Leve,Muy Buena,1,"Cluster de muy baja intensidad delictiva, muy alta recuperacion y predominio de motos",9.0
CAREPA,5147000,ANTIOQUIA,281,15,266,204,10,0.9458483754512635,7.755148,-76.652652,0.7259786476868327,0.0355871886120996,Muy Alto,Mala,6,"Cluster de alta intensidad delictiva, recuperacion media y predominio de motos",3.0
CARMEN DE APICALA,73148000,TOLIMA,93,31,62,43,12,0.6551724137931034,4.152334,-74.717633,0.4623655913978494,0.1290322580645161,Alto,Grave,0 (sub 1),"Cluster de intensidad delictiva media-alta, recuperacion media-baja y predominio de motos",4.0
CARMEN DE CARUPA,25154000,CUNDINAMARCA,17,4,13,14,2,0.75,5.349119,-73.901357,0.8235294117647058,0.1176470588235294,Moderado,Mala,1,"Cluster de muy baja intensidad delictiva, muy alta recuperacion y predominio de motos",9.0
CAROLINA,5150000,ANTIOQUIA,19,5,14,14,0,0.7368421052631579,6.725995,-75.283192,0.7368421052631579,0.0,Moderado,Mala,1,"Cluster de muy baja intensidad delictiva, muy alta recuperacion y predominio de motos",9.0
CARTAGENA (CT),13001000,BOLIVAR,8046,856,7190,3146,735,0.8923095378192466,10.385126,-75.496269,0.3910017399950286,0.0913497390007457,Muy Alto,Grave,cluster_extremo,Cluster de ciudades principales con intensidad delictiva extrema,1.0
CARTAGENA DEL CHAIRA,18150000,CAQUETA,111,4,107,140,0,0.9611650485436892,1.3323710000000002,-74.847867,1.2612612612612613,0.0,Alto,Buena,4,"Cluster de intensidad delictiva media, alta recuperacion y predominio de motos",5.0
CARTAGO,76147000,VALLE,1056,182,874,605,61,0.8308484203052893,4.742192,-75.924374,0.5729166666666666,0.0577651515151515,Muy Alto,Grave,2,"Cluster de muy alta intensidad delictiva, baja recuperacion y predominio de motos",2.0
CARURU,97161000,VAUPES,1,0,1,2,0,1.0,1.016116,-71.30221,2.0,0.0,Leve,Muy Buena,1,"Cluster de muy baja intensidad delictiva, muy alta recuperacion y predominio de motos",9.0
CASABIANCA,73152000,TOLIMA,13,1,12,21,0,0.9230769230769232,5.078465,-75.120966,1.6153846153846154,0.0,Moderado,Buena,1,"Cluster de muy baja intensidad delictiva, muy alta recuperacion y predominio de motos",9.0
CASTILLA LA NUEVA,50150000,META,167,16,151,49,5,0.9233333333333332,3.830005,-73.687302,0.2934131736526946,0.029940119760479,Muy Alto,Grave,0 (sub 2),"Cluster de intensidad delictiva media, recuperacion alta y predominio de motos",6.0
CAUCASIA,5154000,ANTIOQUIA,968,49,919,518,54,0.9485981308411215,7.977278000000001,-75.197996,0.5351239669421488,0.0557851239669421,Muy Alto,Grave,6,"Cluster de alta intensidad delictiva, recuperacion media y predominio de motos",3.0
CEPITA,68160000,SANTANDER,0,0,0,3,0,,6.753518,-72.973536,,,Leve,,,,
CERETE,23162000,CORDOBA,593,30,563,494,39,0.9485981308411215,8.888532,-75.79609299999998,0.8330522765598651,0.0657672849915683,Muy Alto,Mala,6,"Cluster de alta intensidad delictiva, recuperacion media y predominio de motos",3.0
CERINZA,15162000,BOYACA,3,1,2,7,0,0.6666666666666666,5.955939,-72.947918,2.333333333333333,0.0,Leve,Muy Buena,1,"Cluster de muy baja intensidad delictiva, muy alta recuperacion y predominio de motos",9.0
CERRITO,68162000,SANTANDER,10,4,6,11,4,0.6,6.840405,-72.694851,1.1,0.4,Leve,Buena,3,"Cluster de baja intensidad delictiva, alta recuperacion y predominio de automotores",8.0
CERRO SAN ANTONIO,47161000,MAGDALENA,1,0,1,28,3,1.0,10.325531,-74.868474,28.0,3.0,Leve,Muy Buena,1,"Cluster de muy baja intensidad delictiva, muy alta recuperacion y predominio de motos",9.0
CERTEGUI,27160000,CHOCO,11,2,9,10,2,0.7142857142857143,5.371373,-76.60761900000001,0.9090909090909092,0.1818181818181818,Leve,Mala,1,"Cluster de muy baja intensidad delictiva, muy alta recuperacion y predominio de motos",9.0
CHACHAGUI,52240000,NARINO,84,25,59,109,3,0.7012195121951219,1.360545,-77.281869,1.2976190476190477,0.0357142857142857,Alto,Buena,4,"Cluster de intensidad delictiva media, alta recuperacion y predominio de motos",5.0
CHAGUANI,25168000,CUNDINAMARCA,13,5,8,13,5,0.6666666666666666,4.948916,-74.593455,1.0,0.3846153846153846,Moderado,Mala,3,"Cluster de baja intensidad delictiva, alta recuperacion y predominio de automotores",8.0
CHALAN,70230000,SUCRE,7,2,5,2,0,0.7142857142857143,9.545352,-75.312697,0.2857142857142857,0.0,Leve,Grave,1,"Cluster de muy baja intensidad delictiva, muy alta recuperacion y predominio de motos",9.0
CHAMEZA,85015000,CASANARE,4,1,3,1,0,0.75,5.214527,-72.87016,0.25,0.0,Leve,Grave,1,"Cluster de muy baja intensidad delictiva, muy alta recuperacion y predominio de motos",9.0
CHAPARRAL,73168000,TOLIMA,408,20,388,252,32,0.9525089605734768,3.722918,-75.480765,0.6176470588235294,0.0784313725490196,Muy Alto,Grave,2,"Cluster de muy alta intensidad delictiva, baja recuperacion y predominio de motos",2.0
CHARALA,68167000,SANTANDER,8,0,8,7,2,1.0,6.284339,-73.146873,0.875,0.25,Leve,Mala,1,"Cluster de muy baja intensidad delictiva, muy alta recuperacion y predominio de motos",9.0
CHARTA,68169000,SANTANDER,3,1,2,5,2,0.6666666666666666,7.280820000000001,-72.968798,1.6666666666666667,0.6666666666666666,Leve,Muy Buena,1,"Cluster de muy baja intensidad delictiva, muy alta recuperacion y predominio de motos",9.0
CHIA,25175000,CUNDINAMARCA,473,189,284,417,56,0.5915880503144655,4.866508,-74.05,0.8816067653276956,0.1183932346723044,Muy Alto,Mala,2,"Cluster de muy alta intensidad delictiva, baja recuperacion y predominio de motos",2.0
CHIGORODO,5172000,ANTIOQUIA,317,14,303,287,12,0.9575971731448764,7.666147,-76.681531,0.9053627760252366,0.0378548895899053,Muy Alto,Mala,6,"Cluster de alta intensidad delictiva, recuperacion media y predominio de motos",3.0
CHIMA,23168000,CORDOBA,25,2,23,19,1,0.9333333333333332,9.149698,-75.626886,0.76,0.04,Moderado,Mala,5,"Cluster de baja intensidad delictiva, recuperacion media-baja y predominio de motos",7.0
CHIMA,23168000,SANTANDER,0,0,0,3,0,,9.149698,-75.626886,,,Leve,,5,"Cluster de baja intensidad delictiva, recuperacion media-baja y predominio de motos",7.0
CHIMICHAGUA,20175000,CESAR,54,14,40,52,5,0.75,9.25875,-73.813278,0.9629629629629628,0.0925925925925925,Alto,Mala,5,"Cluster de baja intensidad delictiva, recuperacion media-baja y predominio de motos",7.0
CHINACOTA,54172000,NORTE DE SANTANDER,117,15,102,95,21,0.8765432098765432,7.603112,-72.601162,0.811965811965812,0.1794871794871795,Alto,Mala,0 (sub 1),"Cluster de intensidad delictiva media-alta, recuperacion media-baja y predominio de motos",4.0
CHINAVITA,15172000,BOYACA,0,0,0,2,0,,5.167486,-73.368476,,,Leve,,,,
CHINCHINA,17174000,CALDAS,252,48,204,276,34,0.8078512396694215,4.985227,-75.607529,1.0952380952380951,0.1349206349206349,Muy Alto,Buena,2,"Cluster de muy alta intensidad delictiva, baja recuperacion y predominio de motos",2.0
CHINU,23182000,CORDOBA,355,22,333,203,8,0.9468302658486708,9.105473,-75.399633,0.571830985915493,0.0225352112676056,Muy Alto,Grave,6,"Cluster de alta intensidad delictiva, recuperacion media y predominio de motos",3.0
CHIPAQUE,25178000,CUNDINAMARCA,38,20,18,103,7,0.4814814814814814,4.442671,-74.044876,2.710526315789474,0.1842105263157894,Moderado,Muy Buena,3,"Cluster de baja intensidad delictiva, alta recuperacion y predominio de automotores",8.0
CHIPATA,68179000,SANTANDER,3,2,1,2,0,0.3333333333333333,6.062521,-73.637111,0.6666666666666666,0.0,Leve,Mala,3,"Cluster de baja intensidad delictiva, alta recuperacion y predominio de automotores",8.0
CHIQUINQUIRA,15176000,BOYACA,98,46,52,178,20,0.5368421052631579,5.61379,-73.818745,1.816326530612245,0.2040816326530612,Alto,Muy Buena,0 (sub 1),"Cluster de intensidad delictiva media-alta, recuperacion media-baja y predominio de motos",4.0
CHIQUIZA,15232000,BOYACA,5,3,2,8,1,0.4,5.639834,-73.449463,1.6,0.2,Leve,Buena,3,"Cluster de baja intensidad delictiva, alta recuperacion y predominio de automotores",8.0
CHIRIGUANA,20178000,CESAR,380,85,295,112,16,0.788135593220339,9.361058,-73.599913,0.2947368421052631,0.0421052631578947,Muy Alto,Grave,6,"Cluster de alta intensidad delictiva, recuperacion media y predominio de motos",3.0
CHISCAS,15180000,BOYACA,0,0,0,2,0,,6.553136,-72.500957,,,Leve,,,,
CHITA,15183000,BOYACA,4,1,3,12,0,0.75,6.187083,-72.471892,3.0,0.0,Leve,Muy Buena,1,"Cluster de muy baja intensidad delictiva, muy alta recuperacion y predominio de motos",9.0
CHITAGA,54174000,NORTE DE SANTANDER,25,5,20,16,1,0.7916666666666666,7.138187000000001,-72.665468,0.64,0.04,Moderado,Mala,1,"Cluster de muy baja intensidad delictiva, muy alta recuperacion y predominio de motos",9.0
CHITARAQUE,15185000,BOYACA,10,4,6,8,3,0.5555555555555556,6.027425,-73.4471,0.8,0.3,Leve,Mala,3,"Cluster de baja intensidad delictiva, alta recuperacion y predominio de automotores",8.0
CHIVATA,15187000,BOYACA,8,2,6,11,0,0.75,5.558949,-73.282529,1.375,0.0,Leve,Buena,1,"Cluster de muy baja intensidad delictiva, muy alta recuperacion y predominio de motos",9.0
CHIVOLO,47170000,MAGDALENA,42,6,36,60,4,0.8536585365853658,10.026631,-74.622242,1.4285714285714286,0.0952380952380952,Moderado,Buena,5,"Cluster de baja intensidad delictiva, recuperacion media-baja y predominio de motos",7.0
CHIVOR,15236000,BOYACA,2,0,2,13,1,1.0,4.888173,-73.368398,6.5,0.5,Leve,Muy Buena,1,"Cluster de muy baja intensidad delictiva, muy alta recuperacion y predominio de motos",9.0
CHOACHI,25181000,CUNDINAMARCA,22,8,14,34,13,0.6363636363636364,4.527048,-73.922894,1.5454545454545454,0.5909090909090909,Moderado,Buena,0 (sub 2),"Cluster de intensidad delictiva media, recuperacion alta y predominio de motos",6.0
CHOCONTA,25183000,CUNDINAMARCA,91,30,61,166,12,0.6590909090909091,5.145224,-73.683533,1.824175824175824,0.1318681318681318,Alto,Muy Buena,0 (sub 1),"Cluster de intensidad delictiva media-alta, recuperacion media-baja y predominio de motos",4.0
CICUCO,13188000,BOLIVAR,25,0,25,19,2,1.0,9.274281,-74.645981,0.76,0.08,Moderado,Mala,5,"Cluster de baja intensidad delictiva, recuperacion media-baja y predominio de motos",7.0
CIENAGA,47189000,MAGDALENA,1349,58,1291,565,97,0.9560566637756576,11.006654,-74.241286,0.41882876204596,0.0719051148999258,Muy Alto,Grave,6,"Cluster de alta intensidad delictiva, recuperacion media y predominio de motos",3.0
CIENAGA DE ORO,23189000,CORDOBA,172,3,169,158,10,0.9818181818181818,8.875794,-75.620807,0.9186046511627908,0.0581395348837209,Muy Alto,Mala,5,"Cluster de baja intensidad delictiva, recuperacion media-baja y predominio de motos",7.0
CIENEGA,15189000,BOYACA,2,0,2,12,0,1.0,5.408694,-73.296049,6.0,0.0,Leve,Muy Buena,1,"Cluster de muy baja intensidad delictiva, muy alta recuperacion y predominio de motos",9.0
CIMITARRA,68190000,SANTANDER,158,36,122,245,30,0.7692307692307693,6.320885999999999,-73.953011,1.5506329113924051,0.189873417721519,Muy Alto,Buena,0 (sub 1),"Cluster de intensidad delictiva media-alta, recuperacion media-baja y predominio de motos",4.0
CIRCASIA,63190000,QUINDIO,148,33,115,77,15,0.7737226277372263,4.617759,-75.636533,0.5202702702702703,0.1013513513513513,Alto,Grave,0 (sub 1),"Cluster de intensidad delictiva media-alta, recuperacion media-baja y predominio de motos",4.0
CISNEROS,5190000,ANTIOQUIA,78,12,66,123,11,0.8378378378378378,6.537829,-75.087047,1.5769230769230769,0.141025641025641,Alto,Buena,0 (sub 1),"Cluster de intensidad delictiva media-alta, recuperacion media-baja y predominio de motos",4.0
CIUDAD BOLIVAR,5101000,ANTIOQUIA,103,17,86,108,8,0.845,5.850273,-76.021509,1.0485436893203883,0.0776699029126213,Alto,Buena,0 (sub 1),"Cluster de intensidad delictiva media-alta, recuperacion media-baja y predominio de motos",4.0
CLEMENCIA,13222000,BOLIVAR,36,2,34,20,2,0.9444444444444444,10.567452,-75.328469,0.5555555555555556,0.0555555555555555,Moderado,Grave,5,"Cluster de baja intensidad delictiva, recuperacion media-baja y predominio de motos",7.0
COCORNA,5197000,ANTIOQUIA,102,24,78,71,6,0.765625,6.058295,-75.185483,0.696078431372549,0.0588235294117647,Alto,Mala,0 (sub 1),"Cluster de intensidad delictiva media-alta, recuperacion media-baja y predominio de motos",4.0
COELLO,73200000,TOLIMA,74,23,51,76,13,0.7101449275362319,4.287276,-74.898464,1.027027027027027,0.1756756756756756,Alto,Buena,0 (sub 1),"Cluster de intensidad delictiva media-alta, recuperacion media-baja y predominio de motos",4.0
COGUA,25200000,CUNDINAMARCA,51,19,32,68,10,0.6122448979591837,5.061842,-73.978497,1.3333333333333333,0.196078431372549,Alto,Buena,0 (sub 1),"Cluster de intensidad delictiva media-alta, recuperacion media-baja y predominio de motos",4.0
COLOMBIA,41206000,HUILA,14,2,12,15,1,0.8636363636363636,3.376745,-74.802815,1.0714285714285714,0.0714285714285714,Moderado,Buena,1,"Cluster de muy baja intensidad delictiva, muy alta recuperacion y predominio de motos",9.0
COLON,52203000,NARINO,12,1,11,52,3,0.9166666666666666,1.643878,-77.019777,4.333333333333333,0.25,Moderado,Muy Buena,4,"Cluster de intensidad delictiva media, alta recuperacion y predominio de motos",5.0
COLON,52203000,PUTUMAYO,18,1,17,18,0,0.9411764705882352,1.643878,-77.019777,1.0,0.0,Moderado,Mala,4,"Cluster de intensidad delictiva media, alta recuperacion y predominio de motos",5.0
COLOSO,70204000,SUCRE,14,1,13,21,4,0.9285714285714286,9.494192,-75.353256,1.5,0.2857142857142857,Moderado,Buena,5,"Cluster de baja intensidad delictiva, recuperacion media-baja y predominio de motos",7.0
COMBITA,15204000,BOYACA,20,9,11,44,9,0.55,5.634545,-73.323957,2.2,0.45,Moderado,Muy Buena,3,"Cluster de baja intensidad delictiva, alta recuperacion y predominio de automotores",8.0
CONCEPCION,5206000,ANTIOQUIA,20,1,19,20,4,0.9473684210526316,6.394348,-75.257587,1.0,0.2,Moderado,Mala,1,"Cluster de muy baja intensidad delictiva, muy alta recuperacion y predominio de motos",9.0
CONCEPCION,5206000,SANTANDER,7,2,5,9,0,0.7142857142857143,6.394348,-75.257587,1.2857142857142858,0.0,Leve,Buena,1,"Cluster de muy baja intensidad delictiva, muy alta recuperacion y predominio de motos",9.0
CONCORDIA,5209000,ANTIOQUIA,78,12,66,93,12,0.8486842105263158,6.045738,-75.908448,1.1923076923076923,0.1538461538461538,Alto,Buena,0 (sub 1),"Cluster de intensidad delictiva media-alta, recuperacion media-baja y predominio de motos",4.0
CONCORDIA,5209000,MAGDALENA,3,0,3,10,1,1.0,6.045738,-75.908448,3.333333333333333,0.3333333333333333,Leve,Muy Buena,0 (sub 1),"Cluster de intensidad delictiva media-alta, recuperacion media-baja y predominio de motos",4.0
CONDOTO,27205000,CHOCO,17,0,17,25,1,1.0,5.091003,-76.650683,1.4705882352941178,0.0588235294117647,Moderado,Buena,1,"Cluster de muy baja intensidad delictiva, muy alta recuperacion y predominio de motos",9.0
CONFINES,68209000,SANTANDER,1,0,1,11,0,1.0,6.357327000000001,-73.240554,11.0,0.0,Leve,Muy Buena,1,"Cluster de muy baja intensidad delictiva, muy alta recuperacion y predominio de motos",9.0
CONSACA,52207000,NARINO,53,5,48,68,0,0.8936170212765957,1.2078540000000002,-77.46613600000002,1.2830188679245282,0.0,Alto,Buena,4,"Cluster de intensidad delictiva media, alta recuperacion y predominio de motos",5.0
CONTADERO,52210000,NARINO,63,15,48,71,6,0.7916666666666666,0.910458,-77.549409,1.126984126984127,0.0952380952380952,Alto,Buena,4,"Cluster de intensidad delictiva media, alta recuperacion y predominio de motos",5.0
CONTRATACION,68211000,SANTANDER,0,0,0,2,0,,6.290561,-73.474426,,,Leve,,,,
CONVENCION,54206000,NORTE DE SANTANDER,174,66,108,97,1,0.6234939759036144,8.470374,-73.3372,0.5574712643678161,0.0057471264367816,Muy Alto,Grave,0 (sub 1),"Cluster de intensidad delictiva media-alta, recuperacion media-baja y predominio de motos",4.0
COPACABANA,5212000,ANTIOQUIA,1752,456,1296,653,68,0.7361209127264172,6.348557,-75.509384,0.3727168949771689,0.0388127853881278,Muy Alto,Grave,2,"Cluster de muy alta intensidad delictiva, baja recuperacion y predominio de motos",2.0
COPER,15212000,BOYACA,3,0,3,4,2,1.0,5.475074,-74.045636,1.3333333333333333,0.6666666666666666,Leve,Buena,1,"Cluster de muy baja intensidad delictiva, muy alta recuperacion y predominio de motos",9.0
CORDOBA,52215000,BOLIVAR,18,3,15,15,0,0.8333333333333334,0.854564,-77.517897,0.8333333333333334,0.0,Moderado,Mala,4,"Cluster de intensidad delictiva media, alta recuperacion y predominio de motos",5.0
CORDOBA,52215000,NARINO,153,22,131,113,19,0.865296803652968,0.854564,-77.517897,0.738562091503268,0.1241830065359477,Muy Alto,Mala,4,"Cluster de intensidad delictiva media, alta recuperacion y predominio de motos",5.0
CORDOBA,52215000,QUINDIO,18,4,14,9,4,0.8235294117647058,0.854564,-77.517897,0.5,0.2222222222222222,Moderado,Grave,4,"Cluster de intensidad delictiva media, alta recuperacion y predominio de motos",5.0
CORINTO,19212000,CAUCA,727,247,480,919,20,0.6514913657770801,3.173854,-76.261866,1.2640990371389271,0.0275103163686382,Muy Alto,Buena,2,"Cluster de muy alta intensidad delictiva, baja recuperacion y predominio de motos",2.0
COROMORO,68217000,SANTANDER,2,0,2,2,0,1.0,6.294999,-73.040816,1.0,0.0,Leve,Mala,1,"Cluster de muy baja intensidad delictiva, muy alta recuperacion y predominio de motos",9.0
COROZAL,70215000,SUCRE,527,23,504,212,48,0.9568788501026694,9.318749,-75.293048,0.4022770398481973,0.0910815939278937,Muy Alto,Grave,6,"Cluster de alta intensidad delictiva, recuperacion media y predominio de motos",3.0
CORRALES,15215000,BOYACA,8,1,7,5,0,0.875,5.828064,-72.844795,0.625,0.0,Leve,Grave,1,"Cluster de muy baja intensidad delictiva, muy alta recuperacion y predominio de motos",9.0
COTA,25214000,CUNDINAMARCA,154,85,69,93,16,0.4367816091954023,4.812564,-74.10256899999999,0.6038961038961039,0.1038961038961039,Muy Alto,Grave,0 (sub 1),"Cluster de intensidad delictiva media-alta, recuperacion media-baja y predominio de motos",4.0
COTORRA,23300000,CORDOBA,43,0,43,77,3,1.0,9.037163,-75.799216,1.7906976744186047,0.0697674418604651,Alto,Muy Buena,5,"Cluster de baja intensidad delictiva, recuperacion media-baja y predominio de motos",7.0
COVARACHIA,15218000,BOYACA,3,0,3,2,0,1.0,6.500176999999999,-72.738978,0.6666666666666666,0.0,Leve,Mala,1,"Cluster de muy baja intensidad delictiva, muy alta recuperacion y predominio de motos",9.0
COVENAS,70221000,SUCRE,98,2,96,44,9,0.9791666666666666,9.402779,-75.680158,0.4489795918367347,0.0918367346938775,Alto,Grave,5,"Cluster de baja intensidad delictiva, recuperacion media-baja y predominio de motos",7.0
COYAIMA,73217000,TOLIMA,153,19,134,86,13,0.8801369863013698,3.798036,-75.193862,0.5620915032679739,0.0849673202614379,Muy Alto,Grave,0 (sub 1),"Cluster de intensidad delictiva media-alta, recuperacion media-baja y predominio de motos",4.0
CRAVO NORTE,81220000,ARAUCA,17,4,13,21,2,0.7647058823529411,6.303913,-70.204286,1.2352941176470589,0.1176470588235294,Moderado,Buena,1,"Cluster de muy baja intensidad delictiva, muy alta recuperacion y predominio de motos",9.0
CUASPUD,52224000,NARINO,90,23,67,54,4,0.7440476190476191,0.862978,-77.728947,0.6,0.0444444444444444,Alto,Grave,4,"Cluster de intensidad delictiva media, alta recuperacion y predominio de motos",5.0
CUBARA,15223000,BOYACA,27,13,14,12,0,0.56,6.997275,-72.107939,0.4444444444444444,0.0,Moderado,Grave,3,"Cluster de baja intensidad delictiva, alta recuperacion y predominio de automotores",8.0
CUBARRAL,50223000,META,47,10,37,29,7,0.7976190476190477,3.793653,-73.837999,0.6170212765957447,0.1489361702127659,Alto,Grave,0 (sub 2),"Cluster de intensidad delictiva media, recuperacion alta y predominio de motos",6.0
CUCAITA,15224000,BOYACA,7,1,6,11,0,0.8571428571428571,5.544452,-73.454338,1.5714285714285714,0.0,Leve,Buena,1,"Cluster de muy baja intensidad delictiva, muy alta recuperacion y predominio de motos",9.0
CUCUNUBA,25224000,CUNDINAMARCA,32,3,29,25,0,0.9,5.249795,-73.766113,0.78125,0.0,Moderado,Mala,1,"Cluster de muy baja intensidad delictiva, muy alta recuperacion y predominio de motos",9.0
CUCUTA (CT),54001000,NORTE DE SANTANDER,10803,1642,9161,4568,1031,0.8289187173309885,7.905724999999999,-72.508178,0.4228455058779968,0.0954364528371748,Muy Alto,Grave,cluster_extremo,Cluster de ciudades principales con intensidad delictiva extrema,1.0
CUCUTILLA,54223000,NORTE DE SANTANDER,9,1,8,6,0,0.8888888888888888,7.539633,-72.772816,0.6666666666666666,0.0,Leve,Mala,1,"Cluster de muy baja intensidad delictiva, muy alta recuperacion y predominio de motos",9.0
CUITIVA,15226000,BOYACA,4,0,4,3,0,1.0,5.580367,-72.965923,0.75,0.0,Leve,Mala,1,"Cluster de muy baja intensidad delictiva, muy alta recuperacion y predominio de motos",9.0
CUMARAL,50226000,META,167,11,156,114,19,0.93125,4.270042,-73.487052,0.6826347305389222,0.1137724550898203,Muy Alto,Mala,0 (sub 1),"Cluster de intensidad delictiva media-alta, recuperacion media-baja y predominio de motos",4.0
CUMARIBO,99773000,VICHADA,25,1,24,79,2,0.96,4.446352,-69.795533,3.16,0.08,Moderado,Muy Buena,1,"Cluster de muy baja intensidad delictiva, muy alta recuperacion y predominio de motos",9.0
CUMBAL,52227000,NARINO,383,71,312,255,14,0.8139204545454546,0.906367,-77.792505,0.6657963446475196,0.0365535248041775,Muy Alto,Mala,2,"Cluster de muy alta intensidad delictiva, baja recuperacion y predominio de motos",2.0
CUMBITARA,52233000,NARINO,33,8,25,35,2,0.7580645161290323,1.647163,-77.578616,1.0606060606060606,0.0606060606060606,Moderado,Buena,4,"Cluster de intensidad delictiva media, alta recuperacion y predominio de motos",5.0
CUNDAY,73226000,TOLIMA,18,2,16,27,4,0.8888888888888888,4.059259,-74.692227,1.5,0.2222222222222222,Moderado,Buena,1,"Cluster de muy baja intensidad delictiva, muy alta recuperacion y predominio de motos",9.0
CURILLO,18205000,CAQUETA,26,0,26,31,2,1.0,1.033473,-75.91920500000002,1.1923076923076923,0.0769230769230769,Moderado,Buena,4,"Cluster de intensidad delictiva media, alta recuperacion y predominio de motos",5.0
CURITI,68229000,SANTANDER,15,3,12,14,1,0.8214285714285714,6.605099,-73.069383,0.9333333333333332,0.0666666666666666,Moderado,Mala,1,"Cluster de muy baja intensidad delictiva, muy alta recuperacion y predominio de motos",9.0
CURUMANI,20228000,CESAR,353,52,301,258,27,0.8461538461538461,9.201716,-73.540843,0.7308781869688386,0.0764872521246459,Muy Alto,Mala,6,"Cluster de alta intensidad delictiva, recuperacion media y predominio de motos",3.0
DABEIBA,5234000,ANTIOQUIA,72,4,68,105,5,0.9411764705882352,6.998112,-76.261614,1.4583333333333333,0.0694444444444444,Alto,Buena,5,"Cluster de baja intensidad delictiva, recuperacion media-baja y predominio de motos",7.0
DAGUA,76233000,VALLE,348,114,234,460,50,0.6728395061728395,3.657318,-76.68886,1.3218390804597702,0.1436781609195402,Muy Alto,Buena,2,"Cluster de muy alta intensidad delictiva, baja recuperacion y predominio de motos",2.0
DIBULLA,44090000,GUAJIRA,75,18,57,190,6,0.7567567567567568,11.27155,-73.307598,2.533333333333333,0.08,Alto,Muy Buena,5,"Cluster de baja intensidad delictiva, recuperacion media-baja y predominio de motos",7.0
DISTRACCION,44098000,GUAJIRA,119,49,70,59,18,0.5745614035087719,10.898414,-72.887405,0.4957983193277311,0.1512605042016806,Alto,Grave,6,"Cluster de alta intensidad delictiva, recuperacion media y predominio de motos",3.0
DOLORES,73236000,TOLIMA,15,0,15,30,0,1.0,3.539072,-74.896761,2.0,0.0,Moderado,Muy Buena,1,"Cluster de muy baja intensidad delictiva, muy alta recuperacion y predominio de motos",9.0
DON MATIAS,5237000,ANTIOQUIA,143,34,109,113,19,0.7761194029850746,6.485603,-75.39263,0.7902097902097902,0.1328671328671328,Alto,Mala,0 (sub 1),"Cluster de intensidad delictiva media-alta, recuperacion media-baja y predominio de motos",4.0
DOSQUEBRADAS,66170000,RISARALDA,1433,340,1093,858,113,0.7616853632478633,4.833131,-75.675371,0.5987438939288207,0.0788555478018143,Muy Alto,Grave,2,"Cluster de muy alta intensidad delictiva, baja recuperacion y predominio de motos",2.0
DUITAMA,15238000,BOYACA,247,94,153,244,35,0.6148936170212767,5.822964,-73.03063,0.9878542510121456,0.1417004048582996,Muy Alto,Mala,6,"Cluster de alta intensidad delictiva, recuperacion media y predominio de motos",3.0
DURANIA,54239000,NORTE DE SANTANDER,15,0,15,17,3,1.0,7.714804,-72.658491,1.1333333333333333,0.2,Moderado,Buena,1,"Cluster de muy baja intensidad delictiva, muy alta recuperacion y predominio de motos",9.0
EBEJICO,5240000,ANTIOQUIA,29,4,25,39,5,0.8518518518518519,6.325615,-75.766413,1.3448275862068966,0.1724137931034483,Moderado,Buena,5,"Cluster de baja intensidad delictiva, recuperacion media-baja y predominio de motos",7.0
EL AGUILA,76243000,VALLE,14,0,14,22,0,1.0,4.906062,-76.042779,1.5714285714285714,0.0,Moderado,Buena,1,"Cluster de muy baja intensidad delictiva, muy alta recuperacion y predominio de motos",9.0
EL BAGRE,5250000,ANTIOQUIA,208,5,203,123,4,0.9751243781094528,7.597500000000001,-74.799097,0.5913461538461539,0.0192307692307692,Muy Alto,Grave,5,"Cluster de baja intensidad delictiva, recuperacion media-baja y predominio de motos",7.0
EL BANCO,47245000,MAGDALENA,402,14,388,300,35,0.9642857142857144,9.008503,-73.97437,0.746268656716418,0.0870646766169154,Muy Alto,Mala,6,"Cluster de alta intensidad delictiva, recuperacion media y predominio de motos",3.0
EL CAIRO,76246000,VALLE,11,2,9,11,1,0.8181818181818182,4.760874,-76.221611,1.0,0.0909090909090909,Leve,Mala,1,"Cluster de muy baja intensidad delictiva, muy alta recuperacion y predominio de motos",9.0
EL CALVARIO,50245000,META,0,0,0,2,0,,4.352665,-73.713325,,,Leve,,,,
EL CANTON DEL SAN PABLO,27135000,CHOCO,1,0,1,4,0,1.0,5.335321,-76.726844,4.0,0.0,Leve,Muy Buena,1,"Cluster de muy baja intensidad delictiva, muy alta recuperacion y predominio de motos",9.0
EL CARMEN,54245000,NORTE DE SANTANDER,82,27,55,26,1,0.6753246753246753,8.510579,-73.446687,0.3170731707317073,0.0121951219512195,Alto,Grave,5,"Cluster de baja intensidad delictiva, recuperacion media-baja y predominio de motos",7.0
EL CARMEN DE ATRATO,27245000,CHOCO,35,8,27,28,7,0.7575757575757576,5.899789,-76.14211200000001,0.8,0.2,Moderado,Mala,0 (sub 2),"Cluster de intensidad delictiva media, recuperacion alta y predominio de motos",6.0
EL CARMEN DE BOLIVAR,13244000,BOLIVAR,322,20,302,263,17,0.9364820846905536,9.718653,-75.121178,0.8167701863354038,0.0527950310559006,Muy Alto,Mala,6,"Cluster de alta intensidad delictiva, recuperacion media y predominio de motos",3.0
EL CARMEN DE CHUCURI,68235000,SANTANDER,22,1,21,27,5,0.9473684210526316,6.700038,-73.51066,1.2272727272727273,0.2272727272727272,Moderado,Buena,1,"Cluster de muy baja intensidad delictiva, muy alta recuperacion y predominio de motos",9.0
EL CARMEN DE VIBORAL,5148000,ANTIOQUIA,435,53,382,202,28,0.8844555278470491,6.082885,-75.333901,0.464367816091954,0.064367816091954,Muy Alto,Grave,2,"Cluster de muy alta intensidad delictiva, baja recuperacion y predominio de motos",2.0
EL CASTILLO,50251000,META,49,5,44,25,2,0.9021739130434784,3.563907,-73.794225,0.5102040816326531,0.0408163265306122,Alto,Grave,0 (sub 2),"Cluster de intensidad delictiva media, recuperacion alta y predominio de motos",6.0
EL CERRITO,76248000,VALLE,720,101,619,360,44,0.857105538140021,3.684229,-76.311972,0.5,0.0611111111111111,Muy Alto,Grave,2,"Cluster de muy alta intensidad delictiva, baja recuperacion y predominio de motos",2.0
EL CHARCO,52250000,NARINO,0,0,0,5,1,,2.479688,-78.110217,,,Leve,,,,
EL COCUY,15244000,BOYACA,1,0,1,6,0,1.0,6.407738,-72.444537,6.0,0.0,Leve,Muy Buena,1,"Cluster de muy baja intensidad delictiva, muy alta recuperacion y predominio de motos",9.0
EL COLEGIO,25245000,CUNDINAMARCA,111,39,72,117,32,0.6542056074766355,4.577951,-74.442261,1.054054054054054,0.2882882882882883,Alto,Buena,0 (sub 1),"Cluster de intensidad delictiva media-alta, recuperacion media-baja y predominio de motos",4.0
EL COPEY,20238000,CESAR,147,29,118,131,6,0.8129496402877698,10.149883,-73.962703,0.891156462585034,0.0408163265306122,Alto,Mala,6,"Cluster de alta intensidad delictiva, recuperacion media y predominio de motos",3.0
EL DONCELLO,18247000,CAQUETA,192,7,185,92,8,0.9630681818181818,1.679951,-75.283631,0.4791666666666667,0.0416666666666666,Muy Alto,Grave,4,"Cluster de intensidad delictiva media, alta recuperacion y predominio de motos",5.0
EL DORADO,50270000,META,18,2,16,8,0,0.8888888888888888,3.739984,-73.835264,0.4444444444444444,0.0,Moderado,Grave,1,"Cluster de muy baja intensidad delictiva, muy alta recuperacion y predominio de motos",9.0
EL DOVIO,76250000,VALLE,24,2,22,29,3,0.9166666666666666,4.510452,-76.237084,1.2083333333333333,0.125,Moderado,Buena,4,"Cluster de intensidad delictiva media, alta recuperacion y predominio de motos",5.0
EL ESPINO,15248000,BOYACA,0,0,0,4,0,,6.483027,-72.497007,,,Leve,,,,
EL GUAMO,13248000,BOLIVAR,5,1,4,7,1,0.8,10.030958,-74.976084,1.4,0.2,Leve,Buena,1,"Cluster de muy baja intensidad delictiva, muy alta recuperacion y predominio de motos",9.0
EL LITORAL DEL SAN JUAN,27250000,CHOCO,1,0,1,0,0,1.0,4.259564,-77.363702,0.0,0.0,Leve,Grave,1,"Cluster de muy baja intensidad delictiva, muy alta recuperacion y predominio de motos",9.0
EL MOLINO,44110000,GUAJIRA,46,19,27,33,13,0.5795454545454546,10.653505,-72.92673,0.717391304347826,0.2826086956521739,Alto,Mala,5,"Cluster de baja intensidad delictiva, recuperacion media-baja y predominio de motos",7.0
EL PASO,20250000,CESAR,436,113,323,202,41,0.7462871287128713,9.668461,-73.742012,0.463302752293578,0.0940366972477064,Muy Alto,Grave,6,"Cluster de alta intensidad delictiva, recuperacion media y predominio de motos",3.0
EL PAUJIL,18256000,CAQUETA,159,21,138,80,15,0.8541666666666666,1.570226,-75.326093,0.5031446540880503,0.0943396226415094,Muy Alto,Grave,4,"Cluster de intensidad delictiva media, alta recuperacion y predominio de motos",5.0
EL PENOL,52254000,NARINO,30,12,18,87,4,0.5862068965517241,1.453567,-77.438522,2.9,0.1333333333333333,Moderado,Muy Buena,4,"Cluster de intensidad delictiva media, alta recuperacion y predominio de motos",5.0
EL PENON,25258000,BOLIVAR,2,0,2,7,0,1.0,5.248747,-74.290207,3.5,0.0,Leve,Muy Buena,1,"Cluster de muy baja intensidad delictiva, muy alta recuperacion y predominio de motos",9.0
EL PENON,25258000,CUNDINAMARCA,6,3,3,16,0,0.5,5.248747,-74.290207,2.6666666666666665,0.0,Leve,Muy Buena,1,"Cluster de muy baja intensidad delictiva, muy alta recuperacion y predominio de motos",9.0
EL PENON,25258000,SANTANDER,3,2,1,7,0,0.3333333333333333,5.248747,-74.290207,2.333333333333333,0.0,Leve,Muy Buena,1,"Cluster de muy baja intensidad delictiva, muy alta recuperacion y predominio de motos",9.0
EL PINON,47258000,MAGDALENA,12,1,11,36,0,0.9166666666666666,10.402781,-74.823094,3.0,0.0,Moderado,Muy Buena,5,"Cluster de baja intensidad delictiva, recuperacion media-baja y predominio de motos",7.0
EL PLAYON,68255000,SANTANDER,28,4,24,37,4,0.8518518518518519,7.470715,-73.20287,1.3214285714285714,0.1428571428571428,Moderado,Buena,5,"Cluster de baja intensidad delictiva, recuperacion media-baja y predominio de motos",7.0
EL RETEN,47268000,MAGDALENA,95,0,95,63,4,1.0,10.610488,-74.268444,0.6631578947368421,0.0421052631578947,Alto,Mala,5,"Cluster de baja intensidad delictiva, recuperacion media-baja y predominio de motos",7.0
EL RETORNO,95025000,GUAVIARE,42,5,37,31,4,0.868421052631579,2.330164,-72.627304,0.7380952380952381,0.0952380952380952,Moderado,Mala,0 (sub 2),"Cluster de intensidad delictiva media, recuperacion alta y predominio de motos",6.0
EL ROBLE,70233000,SUCRE,24,4,20,11,0,0.8333333333333334,9.100647,-75.198378,0.4583333333333333,0.0,Moderado,Grave,5,"Cluster de baja intensidad delictiva, recuperacion media-baja y predominio de motos",7.0
EL ROSAL,25260000,CUNDINAMARCA,91,53,38,35,6,0.4,4.850589,-74.263103,0.3846153846153846,0.0659340659340659,Alto,Grave,3,"Cluster de baja intensidad delictiva, alta recuperacion y predominio de automotores",8.0
EL ROSARIO,52256000,NARINO,43,10,33,90,0,0.7560975609756098,1.745309,-77.33417,2.0930232558139537,0.0,Alto,Muy Buena,4,"Cluster de intensidad delictiva media, alta recuperacion y predominio de motos",5.0
EL SANTUARIO,5697000,ANTIOQUIA,249,32,217,215,49,0.8630434782608696,6.136871,-75.265465,0.8634538152610441,0.1967871485943775,Muy Alto,Mala,6,"Cluster de alta intensidad delictiva, recuperacion media y predominio de motos",3.0
EL TABLON DE GOMEZ,52258000,NARINO,15,2,13,76,1,0.8571428571428571,1.427277,-77.097101,5.066666666666666,0.0666666666666666,Moderado,Muy Buena,4,"Cluster de intensidad delictiva media, alta recuperacion y predominio de motos",5.0
EL TAMBO,19256000,CAUCA,1035,151,884,624,13,0.850536398467433,2.451409,-76.810911,0.6028985507246377,0.0125603864734299,Muy Alto,Grave,2,"Cluster de muy alta intensidad delictiva, baja recuperacion y predominio de motos",2.0
EL TAMBO,19256000,NARINO,106,16,90,233,1,0.8415841584158416,2.451409,-76.810911,2.19811320754717,0.0094339622641509,Alto,Muy Buena,2,"Cluster de muy alta intensidad delictiva, baja recuperacion y predominio de motos",2.0
EL TARRA,54250000,NORTE DE SANTANDER,129,24,105,79,0,0.8130081300813008,8.574281,-73.09614,0.6124031007751938,0.0,Alto,Grave,5,"Cluster de baja intensidad delictiva, recuperacion media-baja y predominio de motos",7.0
EL ZULIA,54261000,NORTE DE SANTANDER,403,91,312,342,19,0.774641577060932,7.938572,-72.604717,0.8486352357320099,0.0471464019851116,Muy Alto,Mala,6,"Cluster de alta intensidad delictiva, recuperacion media y predominio de motos",3.0
ELIAS,41244000,HUILA,33,2,31,23,1,0.9375,2.012854,-75.93830100000001,0.696969696969697,0.0303030303030303,Moderado,Mala,4,"Cluster de intensidad delictiva media, alta recuperacion y predominio de motos",5.0
ENCINO,68264000,SANTANDER,0,0,0,2,0,,6.137429,-73.098749,,,Leve,,,,
ENCISO,68266000,SANTANDER,3,1,2,10,0,0.6666666666666666,6.668034,-72.699647,3.333333333333333,0.0,Leve,Muy Buena,1,"Cluster de muy baja intensidad delictiva, muy alta recuperacion y predominio de motos",9.0
ENTRERRIOS,5264000,ANTIOQUIA,67,13,54,40,7,0.7903225806451613,6.566273000000001,-75.517685,0.5970149253731343,0.1044776119402985,Alto,Grave,0 (sub 1),"Cluster de intensidad delictiva media-alta, recuperacion media-baja y predominio de motos",4.0
ENVIGADO,5266000,ANTIOQUIA,3272,1056,2216,1100,157,0.660166234159108,6.166695,-75.582192,0.3361858190709046,0.0479828850855745,Muy Alto,Grave,2,"Cluster de muy alta intensidad delictiva, baja recuperacion y predominio de motos",2.0
ESPINAL,73268000,TOLIMA,1189,64,1125,646,65,0.9444991789819376,4.151314,-74.885446,0.543313708999159,0.0546677880571909,Muy Alto,Grave,2,"Cluster de muy alta intensidad delictiva, baja recuperacion y predominio de motos",2.0
FACATATIVA,25269000,CUNDINAMARCA,728,236,492,419,47,0.6651929260450161,4.813353,-74.35008499999999,0.5755494505494505,0.0645604395604395,Muy Alto,Grave,2,"Cluster de muy alta intensidad delictiva, baja recuperacion y predominio de motos",2.0
FALAN,73270000,TOLIMA,21,3,18,23,2,0.8571428571428571,5.123104,-74.953007,1.0952380952380951,0.0952380952380952,Moderado,Buena,1,"Cluster de muy baja intensidad delictiva, muy alta recuperacion y predominio de motos",9.0
FILADELFIA,17272000,CALDAS,13,1,12,10,2,0.9230769230769232,5.297091,-75.562474,0.7692307692307693,0.1538461538461538,Moderado,Mala,1,"Cluster de muy baja intensidad delictiva, muy alta recuperacion y predominio de motos",9.0
FILANDIA,63272000,QUINDIO,47,11,36,61,8,0.7674418604651163,4.674338,-75.658387,1.297872340425532,0.1702127659574468,Alto,Buena,0 (sub 1),"Cluster de intensidad delictiva media-alta, recuperacion media-baja y predominio de motos",4.0
FIRAVITOBA,15272000,BOYACA,5,2,3,5,0,0.6,5.668885,-72.993392,1.0,0.0,Leve,Mala,3,"Cluster de baja intensidad delictiva, alta recuperacion y predominio de automotores",8.0
FLANDES,73275000,TOLIMA,225,20,205,137,10,0.9061032863849764,4.276373,-74.818763,0.6088888888888889,0.0444444444444444,Muy Alto,Grave,0 (sub 1),"Cluster de intensidad delictiva media-alta, recuperacion media-baja y predominio de motos",4.0
FLORENCIA,19290000,CAUCA,40,8,32,79,2,0.7948717948717948,1.682535,-77.072547,1.975,0.05,Moderado,Muy Buena,4,"Cluster de intensidad delictiva media, alta recuperacion y predominio de motos",5.0
FLORENCIA (CT),18001000,CAQUETA,2538,54,2484,1354,272,0.9773425499231952,1.618196,-75.609831,0.5334909377462569,0.107171000788022,Muy Alto,Grave,2,"Cluster de muy alta intensidad delictiva, baja recuperacion y predominio de motos",2.0
FLORESTA,15276000,BOYACA,2,0,2,3,0,1.0,5.859519,-72.918111,1.5,0.0,Leve,Buena,1,"Cluster de muy baja intensidad delictiva, muy alta recuperacion y predominio de motos",9.0
FLORIAN,68271000,SANTANDER,4,0,4,6,0,1.0,5.804659,-73.97143,1.5,0.0,Leve,Buena,1,"Cluster de muy baja intensidad delictiva, muy alta recuperacion y predominio de motos",9.0
FLORIDA,76275000,VALLE,1195,152,1043,493,64,0.8738185255198487,3.3241180000000004,-76.234199,0.4125523012552301,0.0535564853556485,Muy Alto,Grave,2,"Cluster de muy alta intensidad delictiva, baja recuperacion y predominio de motos",2.0
FLORIDABLANCA,68276000,SANTANDER,2379,109,2270,1009,258,0.9528145695364238,7.072329,-73.099104,0.4241277847835225,0.1084489281210592,Muy Alto,Grave,6,"Cluster de alta intensidad delictiva, recuperacion media y predominio de motos",3.0
FOMEQUE,25279000,CUNDINAMARCA,15,6,9,36,6,0.6,4.485474,-73.892523,2.4,0.4,Moderado,Muy Buena,3,"Cluster de baja intensidad delictiva, alta recuperacion y predominio de automotores",8.0
FONSECA,44279000,GUAJIRA,791,121,670,356,61,0.852773826458037,10.886734,-72.846319,0.450063211125158,0.0771175726927939,Muy Alto,Grave,6,"Cluster de alta intensidad delictiva, recuperacion media y predominio de motos",3.0
FORTUL,81300000,ARAUCA,148,97,51,39,3,0.374031007751938,6.796695,-71.76877,0.2635135135135135,0.0202702702702702,Muy Alto,Grave,3,"Cluster de baja intensidad delictiva, alta recuperacion y predominio de automotores",8.0
FOSCA,25281000,CUNDINAMARCA,9,2,7,12,2,0.8571428571428571,4.339093,-73.93902,1.3333333333333333,0.2222222222222222,Leve,Buena,1,"Cluster de muy baja intensidad delictiva, muy alta recuperacion y predominio de motos",9.0
FRANCISCO PIZARRO,52520000,NARINO,0,0,0,2,0,,2.040629,-78.658361,,,Leve,,,,
FREDONIA,5282000,ANTIOQUIA,68,11,57,92,16,0.8382352941176471,5.928039,-75.675072,1.3529411764705883,0.2352941176470588,Alto,Buena,0 (sub 1),"Cluster de intensidad delictiva media-alta, recuperacion media-baja y predominio de motos",4.0
FRESNO,73283000,TOLIMA,111,7,104,205,11,0.9369369369369368,5.153576,-75.035722,1.8468468468468469,0.0990990990990991,Alto,Muy Buena,0 (sub 1),"Cluster de intensidad delictiva media-alta, recuperacion media-baja y predominio de motos",4.0
FRONTINO,5284000,ANTIOQUIA,45,1,44,93,4,0.9772727272727272,6.776066,-76.130765,2.066666666666667,0.0888888888888888,Alto,Muy Buena,5,"Cluster de baja intensidad delictiva, recuperacion media-baja y predominio de motos",7.0
FUENTE DE ORO,50287000,META,128,20,108,63,7,0.8458333333333333,3.462875,-73.618121,0.4921875,0.0546875,Alto,Grave,0 (sub 1),"Cluster de intensidad delictiva media-alta, recuperacion media-baja y predominio de motos",4.0
FUNDACION,47288000,MAGDALENA,639,37,602,548,63,0.940068493150685,10.514146,-74.191453,0.8575899843505478,0.0985915492957746,Muy Alto,Mala,6,"Cluster de alta intensidad delictiva, recuperacion media y predominio de motos",3.0
FUNES,52287000,NARINO,10,0,10,16,0,1.0,1.001159,-77.448913,1.6,0.0,Leve,Buena,4,"Cluster de intensidad delictiva media, alta recuperacion y predominio de motos",5.0
FUNZA,25286000,CUNDINAMARCA,621,242,379,407,29,0.6009398496240601,4.710412,-74.201528,0.6553945249597424,0.0466988727858293,Muy Alto,Mala,2,"Cluster de muy alta intensidad delictiva, baja recuperacion y predominio de motos",2.0
FUQUENE,25288000,CUNDINAMARCA,23,8,15,33,1,0.6818181818181818,5.403997,-73.795855,1.434782608695652,0.0434782608695652,Moderado,Buena,3,"Cluster de baja intensidad delictiva, alta recuperacion y predominio de automotores",8.0
FUSAGASUGA,25290000,CUNDINAMARCA,783,251,532,726,64,0.6768263183357522,4.336723,-74.37543,0.9272030651340996,0.0817369093231162,Muy Alto,Mala,2,"Cluster de muy alta intensidad delictiva, baja recuperacion y predominio de motos",2.0
GACHALA,25293000,CUNDINAMARCA,4,0,4,6,0,1.0,4.693579,-73.520161,1.5,0.0,Leve,Buena,1,"Cluster de muy baja intensidad delictiva, muy alta recuperacion y predominio de motos",9.0
GACHANCIPA,25295000,CUNDINAMARCA,59,31,28,37,5,0.4814814814814814,4.990947,-73.873464,0.6271186440677966,0.0847457627118644,Alto,Mala,3,"Cluster de baja intensidad delictiva, alta recuperacion y predominio de automotores",8.0
GACHANTIVA,15293000,BOYACA,3,0,3,1,0,1.0,5.751891,-73.549092,0.3333333333333333,0.0,Leve,Grave,1,"Cluster de muy baja intensidad delictiva, muy alta recuperacion y predominio de motos",9.0
GACHETA,25297000,CUNDINAMARCA,10,4,6,22,1,0.6,4.816411,-73.636377,2.2,0.1,Leve,Muy Buena,3,"Cluster de baja intensidad delictiva, alta recuperacion y predominio de automotores",8.0
GALAN,68296000,SANTANDER,2,0,2,1,0,1.0,6.638423,-73.287769,0.5,0.0,Leve,Grave,1,"Cluster de muy baja intensidad delictiva, muy alta recuperacion y predominio de motos",9.0
GALAPA,8296000,ATLANTICO,721,222,499,292,79,0.6894630192502533,10.919033,-74.870385,0.4049930651872399,0.1095700416088765,Muy Alto,Grave,6,"Cluster de alta intensidad delictiva, recuperacion media y predominio de motos",3.0
GALERAS,70235000,SUCRE,40,2,38,58,4,0.9487179487179488,9.160379,-75.04959,1.45,0.1,Moderado,Buena,5,"Cluster de baja intensidad delictiva, recuperacion media-baja y predominio de motos",7.0
GAMA,25299000,CUNDINAMARCA,0,0,0,10,0,,4.763325,-73.611037,,,Leve,,,,
GAMARRA,20295000,CESAR,121,4,117,108,12,0.9652173913043478,8.324793,-73.737558,0.8925619834710744,0.0991735537190082,Alto,Mala,5,"Cluster de baja intensidad delictiva, recuperacion media-baja y predominio de motos",7.0
GAMBITA,68298000,SANTANDER,7,0,7,3,0,1.0,5.945998,-73.344185,0.4285714285714285,0.0,Leve,Grave,1,"Cluster de muy baja intensidad delictiva, muy alta recuperacion y predominio de motos",9.0
GAMEZA,15296000,BOYACA,4,0,4,1,0,1.0,5.802333,-72.80553,0.25,0.0,Leve,Grave,1,"Cluster de muy baja intensidad delictiva, muy alta recuperacion y predominio de motos",9.0
GARAGOA,15299000,BOYACA,21,3,18,31,2,0.85,5.083234,-73.364413,1.4761904761904765,0.0952380952380952,Moderado,Buena,1,"Cluster de muy baja intensidad delictiva, muy alta recuperacion y predominio de motos",9.0
GARZON,41298000,HUILA,885,19,866,452,90,0.9769736842105264,2.196493,-75.627057,0.5107344632768361,0.1016949152542373,Muy Alto,Grave,2,"Cluster de muy alta intensidad delictiva, baja recuperacion y predominio de motos",2.0
GENOVA,63302000,QUINDIO,22,3,19,14,8,0.8571428571428571,4.206641,-75.790402,0.6363636363636364,0.3636363636363636,Moderado,Mala,4,"Cluster de intensidad delictiva media, alta recuperacion y predominio de motos",5.0
GIGANTE,41306000,HUILA,245,17,228,170,16,0.9279661016949152,2.384031,-75.547681,0.6938775510204082,0.0653061224489796,Muy Alto,Mala,2,"Cluster de muy alta intensidad delictiva, baja recuperacion y predominio de motos",2.0
GINEBRA,76306000,VALLE,162,35,127,109,10,0.7973856209150327,3.724181,-76.268068,0.6728395061728395,0.0617283950617283,Muy Alto,Mala,0 (sub 1),"Cluster de intensidad delictiva media-alta, recuperacion media-baja y predominio de motos",4.0
GIRALDO,5306000,ANTIOQUIA,38,4,34,31,2,0.8918918918918919,6.680808,-75.952158,0.8157894736842105,0.0526315789473684,Moderado,Mala,5,"Cluster de baja intensidad delictiva, recuperacion media-baja y predominio de motos",7.0
GIRARDOT,25307000,CUNDINAMARCA,1007,80,927,772,90,0.922974006116208,4.313069,-74.798201,0.7666335650446872,0.0893743793445878,Muy Alto,Mala,2,"Cluster de muy alta intensidad delictiva, baja recuperacion y predominio de motos",2.0
GIRARDOTA,5308000,ANTIOQUIA,679,129,550,362,42,0.8022222222222222,6.379472,-75.444238,0.5331369661266568,0.0618556701030927,Muy Alto,Grave,2,"Cluster de muy alta intensidad delictiva, baja recuperacion y predominio de motos",2.0
GIRON,68307000,SANTANDER,1217,135,1082,550,125,0.8885964912280702,7.070432,-73.166832,0.4519309778142975,0.1027115858668857,Muy Alto,Grave,6,"Cluster de alta intensidad delictiva, recuperacion media y predominio de motos",3.0
GOMEZ PLATA,5310000,ANTIOQUIA,33,8,25,30,6,0.7333333333333333,6.683269,-75.220018,0.9090909090909092,0.1818181818181818,Moderado,Mala,0 (sub 2),"Cluster de intensidad delictiva media, recuperacion alta y predominio de motos",6.0
GONZALEZ,20310000,CESAR,31,8,23,2,0,0.7142857142857143,8.389604,-73.38004,0.064516129032258,0.0,Moderado,Grave,1,"Cluster de muy baja intensidad delictiva, muy alta recuperacion y predominio de motos",9.0
GRAMALOTE,54313000,NORTE DE SANTANDER,20,3,17,18,9,0.8333333333333334,7.916946,-72.787233,0.9,0.45,Moderado,Mala,5,"Cluster de baja intensidad delictiva, recuperacion media-baja y predominio de motos",7.0
GRANADA,50313000,ANTIOQUIA,32,3,29,33,4,0.935483870967742,3.547147,-73.705815,1.03125,0.125,Moderado,Buena,0 (sub 2),"Cluster de intensidad delictiva media, recuperacion alta y predominio de motos",6.0
GRANADA,50313000,CUNDINAMARCA,52,35,17,45,7,0.3333333333333333,3.547147,-73.705815,0.8653846153846154,0.1346153846153846,Alto,Mala,0 (sub 2),"Cluster de intensidad delictiva media, recuperacion alta y predominio de motos",6.0
GRANADA,50313000,META,1384,48,1336,627,62,0.9662162162162162,3.547147,-73.705815,0.4530346820809248,0.0447976878612716,Muy Alto,Grave,0 (sub 2),"Cluster de intensidad delictiva media, recuperacion alta y predominio de motos",6.0
GUACA,68318000,SANTANDER,11,5,6,7,1,0.5714285714285714,6.876563,-72.856322,0.6363636363636364,0.0909090909090909,Leve,Mala,3,"Cluster de baja intensidad delictiva, alta recuperacion y predominio de automotores",8.0
GUACAMAYAS,15317000,BOYACA,1,0,1,6,0,1.0,6.4596670000000005,-72.500812,6.0,0.0,Leve,Muy Buena,1,"Cluster de muy baja intensidad delictiva, muy alta recuperacion y predominio de motos",9.0
GUACARI,76318000,VALLE,285,54,231,175,15,0.8073110285006195,3.761815,-76.330911,0.6140350877192983,0.0526315789473684,Muy Alto,Grave,2,"Cluster de muy alta intensidad delictiva, baja recuperacion y predominio de motos",2.0
GUACHENE,19300000,CAUCA,502,86,416,212,4,0.8297991071428571,3.134153,-76.392189,0.4223107569721115,0.0079681274900398,Muy Alto,Grave,2,"Cluster de muy alta intensidad delictiva, baja recuperacion y predominio de motos",2.0
GUACHETA,25317000,CUNDINAMARCA,81,11,70,26,8,0.8701298701298701,5.383378,-73.686972,0.3209876543209876,0.0987654320987654,Alto,Grave,0 (sub 2),"Cluster de intensidad delictiva media, recuperacion alta y predominio de motos",6.0
GUACHUCAL,52317000,NARINO,258,59,199,170,26,0.7663934426229508,0.959744,-77.731589,0.6589147286821705,0.1007751937984496,Muy Alto,Mala,2,"Cluster de muy alta intensidad delictiva, baja recuperacion y predominio de motos",2.0
GUADALAJARA DE BUGA,76111000,VALLE,1433,292,1141,817,111,0.7957667507709559,3.900736,-76.298979,0.5701325889741801,0.0774598743893928,Muy Alto,Grave,2,"Cluster de muy alta intensidad delictiva, baja recuperacion y predominio de motos",2.0
GUADALUPE,41319000,ANTIOQUIA,19,0,19,25,4,1.0,2.02426,-75.757185,1.3157894736842106,0.2105263157894736,Moderado,Buena,4,"Cluster de intensidad delictiva media, alta recuperacion y predominio de motos",5.0
GUADALUPE,41319000,HUILA,121,4,117,96,11,0.9658119658119658,2.02426,-75.757185,0.7933884297520661,0.0909090909090909,Alto,Mala,4,"Cluster de intensidad delictiva media, alta recuperacion y predominio de motos",5.0
GUADALUPE,41319000,SANTANDER,4,0,4,3,0,1.0,2.02426,-75.757185,0.75,0.0,Leve,Mala,4,"Cluster de intensidad delictiva media, alta recuperacion y predominio de motos",5.0
GUADUAS,25320000,CUNDINAMARCA,97,50,47,161,8,0.5,5.072076,-74.603402,1.6597938144329898,0.0824742268041237,Alto,Muy Buena,0 (sub 1),"Cluster de intensidad delictiva media-alta, recuperacion media-baja y predominio de motos",4.0
GUAITARILLA,52320000,NARINO,26,6,20,70,3,0.76,1.129574,-77.549824,2.6923076923076925,0.1153846153846153,Moderado,Muy Buena,4,"Cluster de intensidad delictiva media, alta recuperacion y predominio de motos",5.0
GUALMATAN,52323000,NARINO,64,15,49,47,3,0.765625,0.919652,-77.568701,0.734375,0.046875,Alto,Mala,4,"Cluster de intensidad delictiva media, alta recuperacion y predominio de motos",5.0
GUAMAL,50318000,MAGDALENA,42,2,40,51,4,0.9523809523809524,3.879657,-73.768815,1.2142857142857142,0.0952380952380952,Moderado,Buena,0 (sub 2),"Cluster de intensidad delictiva media, recuperacion alta y predominio de motos",6.0
GUAMAL,50318000,META,194,13,181,174,12,0.9301075268817204,3.879657,-73.768815,0.8969072164948454,0.0618556701030927,Muy Alto,Mala,0 (sub 2),"Cluster de intensidad delictiva media, recuperacion alta y predominio de motos",6.0
GUAMO,73319000,TOLIMA,435,34,401,211,24,0.9168797953964194,4.030992,-74.968135,0.4850574712643678,0.0551724137931034,Muy Alto,Grave,2,"Cluster de muy alta intensidad delictiva, baja recuperacion y predominio de motos",2.0
GUAPI,19318000,CAUCA,3,0,3,12,0,1.0,2.571337,-77.88797,4.0,0.0,Leve,Muy Buena,4,"Cluster de intensidad delictiva media, alta recuperacion y predominio de motos",5.0
GUAPOTA,68322000,SANTANDER,0,0,0,2,0,,6.308635,-73.320732,,,Leve,,,,
GUARANDA,70265000,SUCRE,22,2,20,55,4,0.9047619047619048,8.468556,-74.537749,2.5,0.1818181818181818,Moderado,Muy Buena,5,"Cluster de baja intensidad delictiva, recuperacion media-baja y predominio de motos",7.0
GUARNE,5318000,ANTIOQUIA,849,180,669,397,73,0.783195020746888,6.27787,-75.441612,0.4676089517078916,0.0859835100117785,Muy Alto,Grave,2,"Cluster de muy alta intensidad delictiva, baja recuperacion y predominio de motos",2.0
GUASCA,25322000,CUNDINAMARCA,43,11,32,34,3,0.7380952380952381,4.866719,-73.877143,0.7906976744186046,0.0697674418604651,Alto,Mala,0 (sub 2),"Cluster de intensidad delictiva media, recuperacion alta y predominio de motos",6.0
GUATAPE,5321000,ANTIOQUIA,72,7,65,58,16,0.8923076923076924,6.232461,-75.160041,0.8055555555555556,0.2222222222222222,Alto,Mala,0 (sub 1),"Cluster de intensidad delictiva media-alta, recuperacion media-baja y predominio de motos",4.0
GUATAQUI,25324000,CUNDINAMARCA,3,2,1,10,0,0.3333333333333333,4.517517,-74.790058,3.333333333333333,0.0,Leve,Muy Buena,3,"Cluster de baja intensidad delictiva, alta recuperacion y predominio de automotores",8.0
GUATAVITA,25326000,CUNDINAMARCA,7,3,4,14,2,0.5714285714285714,4.935211,-73.83293,2.0,0.2857142857142857,Leve,Muy Buena,3,"Cluster de baja intensidad delictiva, alta recuperacion y predominio de automotores",8.0
GUATEQUE,15322000,BOYACA,22,5,17,39,0,0.7619047619047619,5.007321,-73.471207,1.7727272727272727,0.0,Moderado,Muy Buena,1,"Cluster de muy baja intensidad delictiva, muy alta recuperacion y predominio de motos",9.0
GUATICA,66318000,RISARALDA,24,2,22,37,3,0.9130434782608696,5.315367,-75.799005,1.5416666666666667,0.125,Moderado,Buena,0 (sub 2),"Cluster de intensidad delictiva media, recuperacion alta y predominio de motos",6.0
GUAVATA,68324000,SANTANDER,4,1,3,5,0,0.75,5.954348,-73.700906,1.25,0.0,Leve,Buena,1,"Cluster de muy baja intensidad delictiva, muy alta recuperacion y predominio de motos",9.0
GUAYABAL DE SIQUIMA,25328000,CUNDINAMARCA,8,4,4,27,2,0.5,4.877968,-74.467437,3.375,0.25,Leve,Muy Buena,3,"Cluster de baja intensidad delictiva, alta recuperacion y predominio de automotores",8.0
GUAYABETAL,25335000,CUNDINAMARCA,14,4,10,64,5,0.7142857142857143,4.215306,-73.815107,4.571428571428571,0.3571428571428571,Moderado,Muy Buena,0 (sub 2),"Cluster de intensidad delictiva media, recuperacion alta y predominio de motos",6.0
GUAYATA,15325000,BOYACA,5,1,4,6,0,0.75,4.967122,-73.489698,1.2,0.0,Leve,Buena,1,"Cluster de muy baja intensidad delictiva, muy alta recuperacion y predominio de motos",9.0
GUEPSA,68327000,SANTANDER,12,3,9,11,0,0.75,6.025013,-73.575146,0.9166666666666666,0.0,Moderado,Mala,1,"Cluster de muy baja intensidad delictiva, muy alta recuperacion y predominio de motos",9.0
GUTIERREZ,25339000,CUNDINAMARCA,8,0,8,10,0,1.0,4.254679,-74.003042,1.25,0.0,Leve,Buena,1,"Cluster de muy baja intensidad delictiva, muy alta recuperacion y predominio de motos",9.0
HACARI,54344000,NORTE DE SANTANDER,19,4,15,53,0,0.8333333333333334,8.321506,-73.145997,2.789473684210526,0.0,Moderado,Muy Buena,5,"Cluster de baja intensidad delictiva, recuperacion media-baja y predominio de motos",7.0
HATILLO DE LOBA,13300000,BOLIVAR,4,1,3,11,1,0.75,8.956014,-74.077912,2.75,0.25,Leve,Muy Buena,1,"Cluster de muy baja intensidad delictiva, muy alta recuperacion y predominio de motos",9.0
HATO,68344000,SANTANDER,0,0,0,2,1,,6.543957,-73.308399,,,Leve,,,,
HATO COROZAL,85125000,CASANARE,99,18,81,36,12,0.8105263157894737,6.154099,-71.764213,0.3636363636363636,0.1212121212121212,Alto,Grave,0 (sub 2),"Cluster de intensidad delictiva media, recuperacion alta y predominio de motos",6.0
HATONUEVO,44378000,GUAJIRA,167,70,97,137,26,0.5838509316770186,11.068864,-72.75904,0.8203592814371258,0.155688622754491,Muy Alto,Mala,6,"Cluster de alta intensidad delictiva, recuperacion media y predominio de motos",3.0
HELICONIA,5347000,ANTIOQUIA,15,2,13,11,0,0.8666666666666667,6.206757,-75.734322,0.7333333333333333,0.0,Moderado,Mala,1,"Cluster de muy baja intensidad delictiva, muy alta recuperacion y predominio de motos",9.0
HERRAN,54347000,NORTE DE SANTANDER,1,0,1,3,0,1.0,7.506541,-72.483519,3.0,0.0,Leve,Muy Buena,1,"Cluster de muy baja intensidad delictiva, muy alta recuperacion y predominio de motos",9.0
HERVEO,73347000,TOLIMA,21,6,15,25,4,0.7142857142857143,5.080228,-75.177151,1.1904761904761905,0.1904761904761904,Moderado,Buena,0 (sub 2),"Cluster de intensidad delictiva media, recuperacion alta y predominio de motos",6.0
HISPANIA,5353000,ANTIOQUIA,35,8,27,33,10,0.75,5.799461,-75.906587,0.9428571428571428,0.2857142857142857,Moderado,Mala,0 (sub 2),"Cluster de intensidad delictiva media, recuperacion alta y predominio de motos",6.0
HOBO,41349000,HUILA,101,8,93,66,13,0.921875,2.580812,-75.447697,0.6534653465346535,0.1287128712871287,Alto,Mala,4,"Cluster de intensidad delictiva media, alta recuperacion y predominio de motos",5.0
HONDA,73349000,TOLIMA,165,37,128,149,21,0.7662337662337663,5.211816,-74.75699,0.9030303030303032,0.1272727272727272,Muy Alto,Mala,0 (sub 1),"Cluster de intensidad delictiva media-alta, recuperacion media-baja y predominio de motos",4.0
IBAGUE (CT),73001000,TOLIMA,4008,484,3524,2282,326,0.8754454277286136,4.432248,-75.19424999999998,0.5693612774451098,0.0813373253493014,Muy Alto,Grave,2,"Cluster de muy alta intensidad delictiva, baja recuperacion y predominio de motos",2.0
ICONONZO,73352000,TOLIMA,33,10,23,31,5,0.71875,4.176487,-74.531969,0.9393939393939394,0.1515151515151515,Moderado,Mala,0 (sub 2),"Cluster de intensidad delictiva media, recuperacion alta y predominio de motos",6.0
ILES,52352000,NARINO,68,11,57,64,3,0.8253968253968254,0.96952,-77.521227,0.9411764705882352,0.0441176470588235,Alto,Mala,4,"Cluster de intensidad delictiva media, alta recuperacion y predominio de motos",5.0
IMUES,52354000,NARINO,51,23,28,70,9,0.5490196078431373,1.05506,-77.496339,1.3725490196078431,0.1764705882352941,Alto,Buena,4,"Cluster de intensidad delictiva media, alta recuperacion y predominio de motos",5.0
INIRIDA (CT),94001000,GUAINIA,48,0,48,73,18,1.0,3.866764,-67.918613,1.5208333333333333,0.375,Alto,Buena,0 (sub 2),"Cluster de intensidad delictiva media, recuperacion alta y predominio de motos",6.0
INZA,19355000,CAUCA,174,79,95,81,0,0.5233545647558386,2.549183,-76.063503,0.4655172413793103,0.0,Muy Alto,Grave,4,"Cluster de intensidad delictiva media, alta recuperacion y predominio de motos",5.0
IPIALES,52356000,NARINO,2973,1017,1956,2195,167,0.654255151801164,0.827732,-77.646367,0.7383114698957283,0.0561722166162125,Muy Alto,Mala,2,"Cluster de muy alta intensidad delictiva, baja recuperacion y predominio de motos",2.0
IQUIRA,41357000,HUILA,34,6,28,53,5,0.8181818181818182,2.649359,-75.634497,1.5588235294117647,0.1470588235294117,Moderado,Buena,4,"Cluster de intensidad delictiva media, alta recuperacion y predominio de motos",5.0
ISNOS,41359000,HUILA,504,33,471,261,16,0.9334845049130764,1.9294670000000005,-76.217637,0.5178571428571429,0.0317460317460317,Muy Alto,Grave,2,"Cluster de muy alta intensidad delictiva, baja recuperacion y predominio de motos",2.0
ISTMINA,27361000,CHOCO,136,4,132,146,21,0.968503937007874,5.153946,-76.68518,1.0735294117647058,0.1544117647058823,Alto,Buena,0 (sub 1),"Cluster de intensidad delictiva media-alta, recuperacion media-baja y predominio de motos",4.0
ITAGUI,5360000,ANTIOQUIA,5728,1475,4253,2251,256,0.7296130212697467,6.175079,-75.612056,0.392981843575419,0.0446927374301676,Muy Alto,Grave,2,"Cluster de muy alta intensidad delictiva, baja recuperacion y predominio de motos",2.0
ITUANGO,5361000,ANTIOQUIA,37,4,33,32,2,0.8823529411764706,7.171629,-75.764673,0.8648648648648649,0.054054054054054,Moderado,Mala,5,"Cluster de baja intensidad delictiva, recuperacion media-baja y predominio de motos",7.0
IZA,15362000,BOYACA,3,0,3,7,0,1.0,5.611577,-72.979559,2.333333333333333,0.0,Leve,Muy Buena,1,"Cluster de muy baja intensidad delictiva, muy alta recuperacion y predominio de motos",9.0
JAMBALO,19364000,CAUCA,17,1,16,127,0,0.9642857142857144,2.777834,-76.323877,7.470588235294118,0.0,Moderado,Muy Buena,4,"Cluster de intensidad delictiva media, alta recuperacion y predominio de motos",5.0
JAMUNDI,76364000,VALLE,2958,784,2174,1128,149,0.7324472183695484,3.258751,-76.538472,0.3813387423935091,0.0503718728870858,Muy Alto,Grave,2,"Cluster de muy alta intensidad delictiva, baja recuperacion y predominio de motos",2.0
JARDIN,5364000,ANTIOQUIA,35,2,33,34,4,0.9428571428571428,5.597542,-75.818982,0.9714285714285714,0.1142857142857142,Moderado,Mala,5,"Cluster de baja intensidad delictiva, recuperacion media-baja y predominio de motos",7.0
JENESANO,15367000,BOYACA,10,5,5,22,3,0.5,5.385813,-73.363738,2.2,0.3,Leve,Muy Buena,3,"Cluster de baja intensidad delictiva, alta recuperacion y predominio de automotores",8.0
JERICO,5368000,ANTIOQUIA,36,4,32,35,9,0.8888888888888888,5.789748,-75.785499,0.9722222222222222,0.25,Moderado,Mala,0 (sub 2),"Cluster de intensidad delictiva media, recuperacion alta y predominio de motos",6.0
JERICO,5368000,BOYACA,5,0,5,16,0,1.0,5.789748,-75.785499,3.2,0.0,Leve,Muy Buena,0 (sub 2),"Cluster de intensidad delictiva media, recuperacion alta y predominio de motos",6.0
JERUSALEN,25368000,CUNDINAMARCA,2,0,2,2,0,1.0,4.562273,-74.695474,1.0,0.0,Leve,Mala,1,"Cluster de muy baja intensidad delictiva, muy alta recuperacion y predominio de motos",9.0
JESUS MARIA,68368000,SANTANDER,2,2,0,3,0,0.0,5.876497,-73.783396,1.5,0.0,Leve,Buena,3,"Cluster de baja intensidad delictiva, alta recuperacion y predominio de automotores",8.0
JUAN DE ACOSTA,8372000,ATLANTICO,58,5,53,99,8,0.9150943396226416,10.83254,-75.041032,1.706896551724138,0.1379310344827586,Alto,Muy Buena,5,"Cluster de baja intensidad delictiva, recuperacion media-baja y predominio de motos",7.0
JUNIN,25372000,CUNDINAMARCA,2,0,2,10,0,1.0,4.79057,-73.662961,5.0,0.0,Leve,Muy Buena,1,"Cluster de muy baja intensidad delictiva, muy alta recuperacion y predominio de motos",9.0
JURADO,27372000,CHOCO,0,0,0,1,0,,7.103619,-77.762751,,,Leve,,,,
LA APARTADA,23350000,CORDOBA,86,1,85,71,5,0.9878048780487804,8.050125,-75.336031,0.8255813953488372,0.0581395348837209,Alto,Mala,5,"Cluster de baja intensidad delictiva, recuperacion media-baja y predominio de motos",7.0
LA ARGENTINA,41378000,HUILA,83,7,76,107,13,0.9230769230769232,2.198496,-75.979763,1.289156626506024,0.1566265060240964,Alto,Buena,4,"Cluster de intensidad delictiva media, alta recuperacion y predominio de motos",5.0
LA BELLEZA,68377000,SANTANDER,4,2,2,14,3,0.5,5.85925,-73.965494,3.5,0.75,Leve,Muy Buena,3,"Cluster de baja intensidad delictiva, alta recuperacion y predominio de automotores",8.0
LA CALERA,25377000,CUNDINAMARCA,78,42,36,109,7,0.4545454545454545,4.721104,-73.968161,1.3974358974358974,0.0897435897435897,Alto,Buena,3,"Cluster de baja intensidad delictiva, alta recuperacion y predominio de automotores",8.0
LA CAPILLA,15380000,BOYACA,6,1,5,3,0,0.8,5.095687,-73.444347,0.5,0.0,Leve,Grave,1,"Cluster de muy baja intensidad delictiva, muy alta recuperacion y predominio de motos",9.0
LA CEJA,5376000,ANTIOQUIA,408,53,355,211,37,0.8634321653189577,6.028062,-75.429433,0.5171568627450981,0.0906862745098039,Muy Alto,Grave,2,"Cluster de muy alta intensidad delictiva, baja recuperacion y predominio de motos",2.0
LA CELIA,66383000,RISARALDA,6,0,6,29,0,1.0,5.002787,-76.0032,4.833333333333333,0.0,Leve,Muy Buena,1,"Cluster de muy baja intensidad delictiva, muy alta recuperacion y predominio de motos",9.0
LA CRUZ,52378000,NARINO,57,11,46,191,10,0.8035714285714286,1.601318,-76.970504,3.3508771929824563,0.175438596491228,Alto,Muy Buena,4,"Cluster de intensidad delictiva media, alta recuperacion y predominio de motos",5.0
LA CUMBRE,76377000,VALLE,148,42,106,75,24,0.7226277372262774,3.649268,-76.56805,0.5067567567567568,0.1621621621621621,Muy Alto,Grave,0 (sub 1),"Cluster de intensidad delictiva media-alta, recuperacion media-baja y predominio de motos",4.0
LA DORADA,17380000,CALDAS,367,51,316,359,38,0.8623595505617978,5.460834,-74.668819,0.9782016348773842,0.103542234332425,Muy Alto,Mala,2,"Cluster de muy alta intensidad delictiva, baja recuperacion y predominio de motos",2.0
LA ESPERANZA,54385000,NORTE DE SANTANDER,81,18,63,34,5,0.7662337662337663,7.639839,-73.328126,0.419753086419753,0.0617283950617283,Alto,Grave,0 (sub 2),"Cluster de intensidad delictiva media, recuperacion alta y predominio de motos",6.0
LA ESTRELLA,5380000,ANTIOQUIA,966,257,709,311,30,0.7303571428571428,6.145238,-75.637708,0.3219461697722567,0.031055900621118,Muy Alto,Grave,2,"Cluster de muy alta intensidad delictiva, baja recuperacion y predominio de motos",2.0
LA FLORIDA,52381000,NARINO,66,15,51,95,8,0.7580645161290323,1.29753,-77.402882,1.4393939393939394,0.1212121212121212,Alto,Buena,4,"Cluster de intensidad delictiva media, alta recuperacion y predominio de motos",5.0
LA GLORIA,20383000,CESAR,207,55,152,66,4,0.7233502538071066,8.619298,-73.80321,0.3188405797101449,0.0193236714975845,Muy Alto,Grave,0 (sub 1),"Cluster de intensidad delictiva media-alta, recuperacion media-baja y predominio de motos",4.0
LA JAGUA DE IBIRICO,20400000,CESAR,740,75,665,198,44,0.8930115940565736,9.563752,-73.334143,0.2675675675675675,0.0594594594594594,Muy Alto,Grave,6,"Cluster de alta intensidad delictiva, recuperacion media y predominio de motos",3.0
LA JAGUA DEL PILAR,44420000,GUAJIRA,52,36,16,10,4,0.3076923076923077,10.511862,-73.072638,0.1923076923076923,0.0769230769230769,Alto,Grave,3,"Cluster de baja intensidad delictiva, alta recuperacion y predominio de automotores",8.0
LA LLANADA,52385000,NARINO,26,1,25,57,1,0.9545454545454546,1.472892,-77.58091,2.1923076923076925,0.0384615384615384,Moderado,Muy Buena,4,"Cluster de intensidad delictiva media, alta recuperacion y predominio de motos",5.0
LA MACARENA,50350000,META,85,8,77,76,4,0.9012345679012346,2.177143,-73.78661,0.8941176470588236,0.0470588235294117,Alto,Mala,0 (sub 2),"Cluster de intensidad delictiva media, recuperacion alta y predominio de motos",6.0
LA MERCED,17388000,CALDAS,8,0,8,22,3,1.0,5.39647,-75.546486,2.75,0.375,Leve,Muy Buena,1,"Cluster de muy baja intensidad delictiva, muy alta recuperacion y predominio de motos",9.0
LA MESA,25386000,CUNDINAMARCA,147,55,92,196,15,0.6557377049180327,4.631028,-74.461588,1.3333333333333333,0.1020408163265306,Alto,Buena,0 (sub 1),"Cluster de intensidad delictiva media-alta, recuperacion media-baja y predominio de motos",4.0
LA MONTANITA,18410000,CAQUETA,96,10,86,47,8,0.8956043956043956,1.479173,-75.436408,0.4895833333333333,0.0833333333333333,Alto,Grave,4,"Cluster de intensidad delictiva media, alta recuperacion y predominio de motos",5.0
LA PALMA,25394000,CUNDINAMARCA,4,1,3,28,2,0.75,5.358816,-74.391022,7.0,0.5,Leve,Muy Buena,1,"Cluster de muy baja intensidad delictiva, muy alta recuperacion y predominio de motos",9.0
LA PAZ,20621000,CESAR,392,156,236,211,48,0.5997267759562842,10.387552,-73.171365,0.5382653061224489,0.1224489795918367,Muy Alto,Grave,6,"Cluster de alta intensidad delictiva, recuperacion media y predominio de motos",3.0
LA PAZ,20621000,SANTANDER,2,1,1,5,1,0.5,10.387552,-73.171365,2.5,0.5,Leve,Muy Buena,6,"Cluster de alta intensidad delictiva, recuperacion media y predominio de motos",3.0
LA PENA,25398000,CUNDINAMARCA,6,1,5,13,0,0.8333333333333334,5.198945,-74.394105,2.1666666666666665,0.0,Leve,Muy Buena,1,"Cluster de muy baja intensidad delictiva, muy alta recuperacion y predominio de motos",9.0
LA PINTADA,5390000,ANTIOQUIA,60,26,34,87,28,0.6090909090909091,5.743808,-75.60781,1.45,0.4666666666666667,Alto,Buena,0 (sub 1),"Cluster de intensidad delictiva media-alta, recuperacion media-baja y predominio de motos",4.0
LA PLATA,41396000,HUILA,927,48,879,575,52,0.9491315136476428,2.389263,-75.891254,0.6202804746494067,0.0560949298813376,Muy Alto,Grave,2,"Cluster de muy alta intensidad delictiva, baja recuperacion y predominio de motos",2.0
LA PLAYA,54398000,NORTE DE SANTANDER,49,8,41,64,1,0.8333333333333334,8.21124,-73.239986,1.3061224489795915,0.0204081632653061,Alto,Buena,5,"Cluster de baja intensidad delictiva, recuperacion media-baja y predominio de motos",7.0
LA PRIMAVERA,99524000,VICHADA,30,6,24,36,3,0.8214285714285714,5.486309,-70.410515,1.2,0.1,Moderado,Buena,0 (sub 2),"Cluster de intensidad delictiva media, recuperacion alta y predominio de motos",6.0
